stop_id,stop_code,stop_name,stop_desc,stop_lat,stop_lon,zone_id,stop_url,location_type,parent_station
5100035,,Legnica,,51.2138570,16.1689280,,,0,
8000147,,Hamburg-Harburg,,53.4559080,9.9917030,,,0,
8000168,,Uelzen,,52.9697850,10.5530620,,,0,
8000238,,Lüneburg,,53.2496590,10.4198950,,,0,
8003774,,Lübeck St Jürgen,,53.8423290,10.7029410,,,0,
8010022,,Bad Schandau,,50.9188410,14.1393350,,,0,
8010046,,Beucha,,51.3236250,12.5731380,,,0,
8010051,,Blankenberg(Meckl),,53.7723120,11.7152950,,,0,
8010059,,Borsdorf(Sachs),,51.3457090,12.5411640,,,0,
8010066,,Bützow,,53.8371140,11.9982020,,,0,
8010141,,Grevesmühlen,,53.8574750,11.1847210,,,0,
8010144,,Großbothen,,51.1844550,12.7590430,,,0,
8010210,,Lietzow(Rügen),,54.4809710,13.5100110,,,0,
8010227,,Malchin,,53.7434180,12.7610390,,,0,
8010272,,Pirna,,50.9626230,13.9288890,,,0,
8010273,,Plaaz,,53.8404640,12.3377190,,,0,
8010281,,Pratau,,51.8432640,12.6359620,,,0,
8010284,,Priemerburg,,53.7959800,12.2230280,,,0,
8010292,,Radebeul Ost,,51.0983010,13.6801710,,,0,
8010300,,Rövershagen,,54.1755680,12.2474450,,,0,
8010318,,Schönebeck(Elbe),,52.0188000,11.7331630,,,0,
8010348,,Teterow,,53.7684410,12.5779700,,,0,
8010355,,Velgast,,54.2773230,12.8031390,,,0,
8011017,,Altefähr,,54.3229340,13.1410190,,,0,
8011018,,Altenbach,,51.3558740,12.6823290,,,0,
8011027,,Altenwillershagen,,54.2594120,12.5728230,,,0,
8011140,,Bentwisch,,54.1171960,12.2105170,,,0,
8011150,,Bergwitz,,51.8037030,12.5762260,,,0,
8011190,,Bindfelde,,52.5845680,11.8980440,,,0,
8011215,,Bobitz,,53.8045350,11.3628100,,,0,
8011260,,Brehna,,51.5544590,12.2221740,,,0,
8011281,,Buchenhorst,,54.2682160,12.7126950,,,0,
8011296,,Burgkemnitz,,51.6888180,12.4071780,,,0,
8011339,,Dahlen(Sachs),,51.3509740,12.9842590,,,0,
8011361,,Dessau Süd,,51.8022000,12.2364550,,,0,
8011456,,Eggesin,,53.6818300,14.0730550,,,0,
8011491,,Engelsdorf,,51.3439450,12.4776350,,,0,
8011611,,Gelbensande,,54.1986960,12.3048140,,,0,
8011626,,Gerichshain,,51.3538810,12.5874550,,,0,
8011637,,Glaubitz(Riesa),,51.3175670,13.3654460,,,0,
8011683,,Gräfenhainichen,,51.7247360,12.4600360,,,0,
8011689,,Grambow,,53.4173810,14.3474640,,,0,
8011699,,Greppin,,51.6453570,12.2979740,,,0,
8011702,,Grieben(Meckl),,53.8512390,11.0685780,,,0,
8011705,,Grimma ob Bf,,51.2300780,12.7141380,,,0,
8011763,,Großsteinberg,,51.2505930,12.6374270,,,0,
8011778,,Stralsund-Grünhufe,,54.3042990,13.0439330,,,0,
8011864,,Herrnburg,,53.8377110,10.7600070,,,0,
8011905,,Hohenthurm,,51.5123580,12.0978860,,,0,
8011961,,Jeßnitz(Anh),,51.6825550,12.2773550,,,0,
8012053,,Klosterbuch,,51.1576280,13.0040650,,,0,
8012072,,Königstein(Sächs Schw),,50.9194470,14.0789010,,,0,
8012117,,Kühren,,51.3493430,12.8332060,,,0,
8012138,,Kurort Rathen,,50.9568200,14.0753450,,,0,
8012146,,Lancken,,54.5180370,13.6078870,,,0,
8012147,,Landsberg(b. Halle/Saale),,51.5328990,12.1667150,,,0,
8012198,,Leisnig,,51.1603310,12.9383940,,,0,
8012268,,Lüdersdorf(Meckl),,53.8329310,10.8151500,,,0,
8012284,,Machern(Sachs),,51.3576360,12.6277580,,,0,
8012316,,Martensdorf,,54.3009180,12.9302510,,,0,
8012354,,Miltern,,52.5633510,11.9366260,,,0,
8012376,,Mölln(Meckl),,53.5859380,13.0845160,,,0,
8012377,,Mönchhagen,,54.1435740,12.2253410,,,0,
8012409,,Muldenstein,,51.6677880,12.3540590,,,0,
8012416,,Naunhof,,51.2770940,12.5942410,,,0,
8012421,,Neetzka,,53.5335240,13.5008420,,,0,
8012436,,Neu Wokern,,53.7600360,12.5009190,,,0,
8012523,,Nünchritz,,51.3026560,13.3919760,,,0,
8012555,,Oertzenhof,,53.5180820,13.5731210,,,0,
8012610,,Pasewalk Ost,,53.5095750,14.0093210,,,0,
8012651,,Plüschow,,53.8370670,11.2858470,,,0,
8012683,,Prora,,54.4449910,13.5640620,,,0,
8012684,,Prora Ost,,54.4300660,13.5745270,,,0,
8012704,,Radis,,51.7547090,12.5041910,,,0,
8012711,,Rambin(Rügen),,54.3534320,13.2078190,,,0,
8012758,,Reuterstadt Stavenhagen,,53.7069190,12.9142110,,,0,
8012762,,Ribnitz-Damgarten Ost,,54.2510210,12.4870200,,,0,
8012763,,Ribnitz-Damgarten West,,54.2391840,12.4369710,,,0,
8012788,,Roitzsch(Bitterf),,51.5711700,12.2645450,,,0,
8012832,,Sagard,,54.5243860,13.5649650,,,0,
8012835,,Samtens,,54.3541160,13.2901760,,,0,
8012839,,Sandförde,,53.5639840,13.9712800,,,0,
8012843,,Sassnitz,,54.5162860,13.6379180,,,0,
8012888,,Schmilka-Hirschmühle,,50.8899230,14.2284240,,,0,
8012898,,Schöna,,50.8759030,14.2347180,,,0,
8012902,,Schönberg(Meckl),,53.8533810,10.9278830,,,0,
8012907,,Schönebeck-Bad Salzelmen,,51.9983680,11.7236310,,,0,
8013017,,Sponholz,,53.5638560,13.3664060,,,0,
8013022,,Stadt Wehlen(Sachs),,50.9537220,14.0322510,,,0,
8013062,,Stralsund Rügendamm,,54.3053220,13.1075310,,,0,
8013087,,Tanndorf,,51.1614680,12.8483980,,,0,
8013104,,Teschenhagen,,54.3893680,13.3742460,,,0,
8013131,,Torgelow,,53.6346240,14.0087600,,,0,
8013156,,Ueckermünde Stadthafen,,53.7362060,14.0522390,,,0,
8013162,,Ueckermünde,,53.7339280,14.0540830,,,0,
8013186,,Ventschow,,53.7872080,11.5800240,,,0,
8013295,,Westewitz-Hochweitzschen,,51.1376180,13.0278630,,,0,
8013335,,Wolfen(Bitterfeld),,51.6611580,12.2795650,,,0,
8013361,,Wurzen,,51.3644200,12.7389710,,,0,
8013362,,Bennewitz,,51.3559260,12.7084290,,,0,
8013393,,Zerrenthin,,53.4993980,14.0979010,,,0,
8013461,,Oschatz,,51.3116670,13.1040930,,,0,
8081260,,Schönebeck Süd,,52.0067570,11.7373120,,,0,
8081270,,Schönebeck-Frohse,,52.0339190,11.7073830,,,0,
8089123,,Grambow(Gr),,53.4158080,14.3734030,,,0,
9001103,,Wiebestr./Huttenstr. (Berlin),,52.5283180,13.3202600,,,0,
9001151,,Reuchlinstr. (Berlin),,52.5279030,13.3236370,,,0,
9001152,,Neues Ufer (Berlin),,52.5291030,13.3159810,,,0,
9001154,,Ilsenburger Str. (Berlin),,52.5257560,13.3098400,,,0,
9001155,,Goslarer Platz (Berlin),,52.5257970,13.3142610,,,0,
9001200,,Fennbrücke (Berlin),,52.5383990,13.3609630,,,0,
9001201,,S+U Westhafen (Berlin),,52.5361860,13.3438420,,,0,
9001202,,Am Nordhafen (Berlin),,52.5388540,13.3636160,,,0,
9001203,,Döberitzer Str. (Berlin),,52.5300320,13.3687650,,,0,
9001204,,Lehrter Str./Invalidenstr. (Berlin),,52.5257680,13.3652290,,,0,
9001252,,Friedrich-Krause-Ufer (Berlin),,52.5367430,13.3612220,,,0,
9002101,,Turmstr./Waldstr. (Berlin),,52.5271080,13.3304360,,,0,
9002102,,Turmstr./Beusselstr. (Berlin),,52.5273430,13.3287480,,,0,
9002151,,Wittstocker Str. (Berlin),,52.5308590,13.3285160,,,0,
9002200,,Quitzowstr. (Berlin),,52.5352970,13.3564020,,,0,
9002201,,U Birkenstr. (Berlin),,52.5322320,13.3414230,,,0,
9002202,,Wilsnacker Str. (Berlin),,52.5263670,13.3514110,,,0,
9002203,,Stendaler Str. (Berlin),,52.5324610,13.3505370,,,0,
9002204,,Perleberger Brücke (Berlin),,52.5353320,13.3580390,,,0,
9002205,,Turmstr./Lübecker Str. (Berlin),,52.5262540,13.3455140,,,0,
9002206,,Turmstr./Rathenower Str. (Berlin),,52.5266880,13.3548100,,,0,
9002207,,Stromstr. (Berlin),,52.5291920,13.3440120,,,0,
9002254,,Birkenstr./Rathenower Str. (Berlin),,52.5296570,13.3529120,,,0,
9002255,,Seydlitzstr. (Berlin),,52.5270380,13.3641630,,,0,
9002256,,Poststadion (Berlin),,52.5302850,13.3624360,,,0,
9002257,,Kruppstr. (Berlin),,52.5333900,13.3596440,,,0,
9002258,,Havelberger Str. (Berlin),,52.5310290,13.3476790,,,0,
9003101,,U Hansaplatz (Berlin),,52.5181140,13.3421710,,,0,
9003102,,S Bellevue (Berlin),,52.5199540,13.3471040,,,0,
9003103,,S Tiergarten (Berlin),,52.5139660,13.3362400,,,0,
9003104,,U Turmstr. (Berlin),,52.5259410,13.3414220,,,0,
9003105,,Bachstr. (Berlin),,52.5186020,13.3395780,,,0,
9003107,,Alt-Moabit/Gotzkowskystr. (Berlin),,52.5239330,13.3298980,,,0,
9003152,,Solinger Str. (Berlin),,52.5205510,13.3357330,,,0,
9003155,,Rathaus Tiergarten (Berlin),,52.5260660,13.3391720,,,0,
9003156,,Ottostr. (Berlin),,52.5246850,13.3349300,,,0,
9003174,,U Turmstr. (Berlin) [Bus Turmstr.],,52.5263030,13.3419930,,,0,
9003175,,U Turmstr. (Berlin) [Bus Stromstr.],,52.5258150,13.3430250,,,0,
9003176,,U Turmstr. (Berlin) [Bus Alt-Moabit],,52.5255130,13.3419400,,,0,
9003181,,Zinzendorfstr. (Berlin),,52.5222250,13.3315110,,,0,
9003200,,S+U Berlin Hauptbahnhof (tief),,52.5250460,13.3693910,,,0,
9003201,,S+U Berlin Hauptbahnhof,,52.5258510,13.3689300,,,0,
9003202,,Kirchstr./Alt-Moabit (Berlin),,52.5245450,13.3495870,,,0,
9003203,,Alt-Moabit/Rathenower Str. (Berlin),,52.5236960,13.3570750,,,0,
9003204,,Kleiner Tiergarten (Berlin),,52.5249930,13.3457700,,,0,
9003251,,Paulstr. (Berlin),,52.5200720,13.3556670,,,0,
9003252,,Schloss Bellevue (Berlin),,52.5167190,13.3542090,,,0,
9003253,,Haus der Kulturen der Welt (Berlin),,52.5176020,13.3633700,,,0,
9003254,,U Bundestag (Berlin),,52.5199120,13.3734600,,,0,
9003255,,Clara-Jaschke-Str. (Berlin),,52.5249320,13.3660580,,,0,
9003256,,Spenerstr. (Berlin),,52.5240060,13.3535490,,,0,
9003257,,Lesser-Ury-Weg (Berlin),,52.5242150,13.3619830,,,0,
9003259,,Lüneburger Str. (Berlin),,52.5231400,13.3616550,,,0,
9004101,,Großer Stern (Berlin),,52.5151470,13.3501830,,,0,
9004104,,Reichstag/Bundestag (Berlin),,52.5177200,13.3764850,,,0,
9004105,,Platz der Republik (Berlin),,52.5177900,13.3704470,,,0,
9004151,,Nordische Botschaften/Adenauer-Stiftung (Berlin),,52.5095970,13.3514120,,,0,
9004181,,Hertzallee (Berlin),,52.5092350,13.3326210,,,0,
9005101,,Budapester Str. (Berlin),,52.5065710,13.3456780,,,0,
9005102,,Corneliusbrücke (Berlin),,52.5076240,13.3486710,,,0,
9005103,,Schillstr. (Berlin),,52.5031070,13.3499310,,,0,
9005105,,Lützowplatz (Berlin),,52.5049040,13.3515620,,,0,
9005150,,Tiergartenstr. (Berlin),,52.5097100,13.3619470,,,0,
9005152,,Gedenkstätte Dt. Widerstand (Berlin),,52.5057400,13.3632970,,,0,
9005154,,Köbisstr. (Berlin),,52.5071690,13.3562710,,,0,
9005155,,Hiroshimasteg (Berlin),,52.5067320,13.3574660,,,0,
9005156,,Bayreuther Str. (Berlin),,52.5044330,13.3439630,,,0,
9005201,,U Kurfürstenstr. (Berlin),,52.4998140,13.3628190,,,0,
9005202,,Lützowstr./Potsdamer Str. (Berlin),,52.5034260,13.3660090,,,0,
9005205,,Potsdamer Brücke (Berlin),,52.5059510,13.3683110,,,0,
9005206,,Philharmonie (Berlin),,52.5100840,13.3684400,,,0,
9005207,,Philharmonie Süd (Berlin),,52.5086190,13.3707510,,,0,
9005208,,Varian-Fry-Str. (Berlin),,52.5092970,13.3743070,,,0,
9005252,,U Mendelssohn-Bartholdy-Park (Berlin),,52.5038100,13.3747250,,,0,
9005253,,Schöneberger Brücke (Berlin),,52.5023370,13.3777570,,,0,
9005255,,Kulturforum (Berlin),,52.5075680,13.3691860,,,0,
9005271,,Frobenstr. (Berlin),,52.4994610,13.3598920,,,0,
9006100,,S Wollankstr./Sternstr. (Berlin),,52.5653560,13.3915450,,,0,
9006102,,Prinzenallee/Soldiner Str. (Berlin),,52.5586590,13.3862460,,,0,
9006103,,Residenzstr./Reginhardstr. (Berlin),,52.5601460,13.3705290,,,0,
9006104,,Soldiner Str./Koloniestr. (Berlin),,52.5600860,13.3810560,,,0,
9006105,,Verlängerte Koloniestr. (Berlin),,52.5675480,13.3846530,,,0,
9006153,,St.-Elisabeth-Kirchhof (Berlin),,52.5605020,13.3877640,,,0,
9007102,,S+U Gesundbrunnen Bhf (Berlin),,52.5486410,13.3883770,,,0,
9007103,,U Voltastr. (Berlin),,52.5419340,13.3931630,,,0,
9007104,,S Nordbahnhof (Berlin),,52.5316770,13.3888000,,,0,
9007105,,Wolliner Str. (Berlin),,52.5397740,13.4018050,,,0,
9007106,,Usedomer Str./Feldstr. (Berlin),,52.5392370,13.3871370,,,0,
9007107,,Ruppiner Str. (Berlin),,52.5390880,13.3989830,,,0,
9007108,,S Nordbahnhof/Gartenstr. (Berlin),,52.5333640,13.3874970,,,0,
9007110,,U Bernauer Str. (Berlin),,52.5379970,13.3962360,,,0,
9007111,,Lortzingstr. (Berlin),,52.5443070,13.3991790,,,0,
9007112,,Gartenplatz (Berlin),,52.5384250,13.3842820,,,0,
9007113,,Theodor-Heuss-Weg (Berlin),,52.5349560,13.3858670,,,0,
9007114,,Gartenstr./Feldstr. (Berlin),,52.5365250,13.3838240,,,0,
9007150,,Gedenkstätte Berliner Mauer (Berlin),,52.5357010,13.3904890,,,0,
9007152,,Jülicher Str. (Berlin),,52.5500880,13.3906200,,,0,
9007154,,Demminer Str. (Berlin),,52.5426150,13.3994340,,,0,
9007155,,Gleimstr. (Berlin),,52.5460460,13.3980840,,,0,
9007156,,Swinemünder Str. (Berlin),,52.5459570,13.3949270,,,0,
9007157,,Rügener Str. (Berlin),,52.5450170,13.3907990,,,0,
9007159,,Humboldtsteg (Berlin),,52.5473940,13.3819990,,,0,
9007160,,Grüntaler Str. (Berlin),,52.5553620,13.3908010,,,0,
9007181,,Usedomer Str. (Berlin),,52.5399190,13.3894730,,,0,
9008101,,S Humboldthain (Berlin),,52.5447450,13.3787310,,,0,
9008102,,U Reinickendorfer Str. (Berlin),,52.5398990,13.3703990,,,0,
9008103,,Nettelbeckplatz/S Wedding (Berlin),,52.5446740,13.3701940,,,0,
9008104,,U Reinickendorfer Str./Fennstr. (Berlin),,52.5415280,13.3694180,,,0,
9008106,,Brunnenplatz (Berlin),,52.5501460,13.3780010,,,0,
9008151,,Gerichtstr./Hochstr. (Berlin),,52.5432610,13.3757220,,,0,
9008153,,Wiesenstr. (Berlin),,52.5475960,13.3738970,,,0,
9008158,,Schererstr. (Berlin),,52.5482170,13.3691690,,,0,
9009101,,U Amrumer Str. (Berlin),,52.5422060,13.3495390,,,0,
9009102,,U Leopoldplatz (Berlin),,52.5464970,13.3594010,,,0,
9009103,,U Seestr. (Berlin),,52.5504730,13.3519750,,,0,
9009104,,S+U Wedding (Berlin),,52.5427350,13.3660650,,,0,
9009105,,Seestr./Amrumer Str. (Berlin),,52.5462230,13.3440610,,,0,
9009151,,Gerichtstr. (Berlin),,52.5444820,13.3626700,,,0,
9009152,,Rathaus Wedding (Berlin),,52.5478500,13.3565820,,,0,
9009153,,Luxemburger Str. (Berlin),,52.5440570,13.3550650,,,0,
9009154,,Samoastr. (Berlin),,52.5416050,13.3541490,,,0,
9009155,,Kiautschoustr. (Berlin),,52.5410700,13.3576700,,,0,
9009156,,Antwerpener Str. (Berlin),,52.5486860,13.3487060,,,0,
9009201,,U Nauener Platz (Berlin),,52.5515270,13.3673700,,,0,
9009202,,U Osloer Str. (Berlin),,52.5569410,13.3732900,,,0,
9009203,,U Pankstr. (Berlin),,52.5522580,13.3818420,,,0,
9009204,,Osloer Str./Prinzenallee (Berlin),,52.5559390,13.3836680,,,0,
9009206,,Drontheimer Str. (Berlin),,52.5565320,13.3775530,,,0,
9009251,,Maxstr. (Berlin),,52.5494180,13.3640020,,,0,
9009252,,Exerzierstr. (Berlin),,52.5540210,13.3717090,,,0,
9009253,,Uferstr. (Berlin),,52.5532630,13.3781730,,,0,
9009254,,Ritterlandweg/Soldiner Str. (Berlin),,52.5603320,13.3769350,,,0,
9009272,,U Osloer Str. (Berlin) [Bus Tromsöer Str.],,52.5580200,13.3724970,,,0,
9010201,,Sylter Str. (Berlin),,52.5423310,13.3369400,,,0,
9010251,,Virchow-Klinikum (Berlin),,52.5434970,13.3387440,,,0,
9011101,,U Rehberge (Berlin),,52.5566730,13.3410180,,,0,
9011102,,U Afrikanische Str. (Berlin),,52.5608650,13.3335070,,,0,
9011103,,Otawistr. (Berlin),,52.5526850,13.3368860,,,0,
9011104,,Glasgower Str. (Berlin),,52.5549180,13.3459780,,,0,
9011105,,Londoner Str. (Berlin),,52.5633650,13.3429040,,,0,
9011151,,Türkenstr. (Berlin),,52.5535090,13.3465980,,,0,
9011152,,Bristolstr. (Berlin),,52.5585660,13.3516190,,,0,
9011153,,Septimerstr. (Berlin),,52.5642570,13.3387130,,,0,
9011154,,Nachtigalplatz (Berlin),,52.5569340,13.3346560,,,0,
9011155,,Transvaalstr. (Berlin),,52.5507750,13.3388920,,,0,
9011201,,Louise-Schroeder-Platz (Berlin),,52.5569850,13.3656080,,,0,
9011206,,Holländerstr./Aroser Allee (Berlin),,52.5620910,13.3537630,,,0,
9011207,,Brienzer Str. (Berlin),,52.5619520,13.3595840,,,0,
9011251,,Iranische Str. (Berlin),,52.5550670,13.3659620,,,0,
9011252,,Osram-Höfe (Berlin),,52.5536990,13.3582960,,,0,
9012101,,S Anhalter Bahnhof (Berlin),,52.5045420,13.3820820,,,0,
9012102,,U Kochstr./Checkpoint Charlie (Berlin),,52.5066770,13.3908690,,,0,
9012103,,U Hallesches Tor (Berlin),,52.4977780,13.3917660,,,0,
9012104,,Lindenstr./Oranienstr. (Berlin),,52.5069660,13.3983750,,,0,
9012105,,Abgeordnetenhaus (Berlin),,52.5065560,13.3796710,,,0,
9012106,,Mehringbrücke (Berlin),,52.4979780,13.3892690,,,0,
9012151,,Willy-Brandt-Haus (Berlin),,52.5004170,13.3874460,,,0,
9012152,,Blücherstr. (Berlin),,52.4957880,13.3966210,,,0,
9012153,,Wilhelmstr./Kochstr. (Berlin),,52.5058940,13.3863670,,,0,
9012154,,Charlottenstr. (Berlin),,52.5068880,13.3935410,,,0,
9012155,,Waldeckpark (Berlin),,52.5061790,13.4018400,,,0,
9012156,,Alexandrinenstr. (Berlin),,52.5051580,13.4053280,,,0,
9012157,,Jüdisches Museum (Berlin),,52.5035470,13.3956450,,,0,
9012158,,Franz-Klühs-Str. (Berlin),,52.5004200,13.3948090,,,0,
9012161,,Wilhelmstr./Franz-Klühs-Str. (Berlin),,52.5014190,13.3886110,,,0,
9013101,,U Moritzplatz (Berlin),,52.5037430,13.4109530,,,0,
9013102,,U Kottbusser Tor (Berlin),,52.4990510,13.4177530,,,0,
9013103,,U Prinzenstr. (Berlin),,52.4982770,13.4065370,,,0,
9013104,,Prinzenstr./Ritterstr. (Berlin),,52.5016510,13.4092810,,,0,
9013151,,Segitzdamm (Berlin),,52.5002420,13.4143460,,,0,
9013152,,Oranienplatz (Berlin),,52.5022480,13.4157360,,,0,
9013172,,U Kottbusser Tor (Berlin) [Bus Adalbertstr.],,52.4998970,13.4183840,,,0,
9013173,,U Kottbusser Tor (Berlin) [Bus Reichenbg. Str.],,52.4994490,13.4167650,,,0,
9013174,,U Kottbusser Tor (Berlin) [Bus Kottbusser Str.],,52.4983080,13.4190110,,,0,
9014101,,U Görlitzer Bahnhof (Berlin),,52.4990390,13.4284740,,,0,
9014102,,U Schlesisches Tor (Berlin),,52.5011510,13.4417960,,,0,
9014103,,Adalbertstr./Oranienstr. (Berlin),,52.5012880,13.4192980,,,0,
9014104,,Manteuffelstr./Köpenicker Str. (Berlin),,52.5056380,13.4320160,,,0,
9014105,,Waldemarstr./Manteuffelstr. (Berlin),,52.5011750,13.4279250,,,0,
9014106,,Lausitzer Platz (Berlin),,52.4994730,13.4319190,,,0,
9014107,,Bethaniendamm (Berlin),,52.5072180,13.4284440,,,0,
9014151,,Waldemarstr./Adalbertstr. (Berlin),,52.5028940,13.4218240,,,0,
9014152,,Mariannenplatz (Berlin),,52.5022060,13.4244230,,,0,
9014153,,Wrangelstr. (Berlin),,52.5034960,13.4300170,,,0,
9014154,,Eisenbahnstr. (Berlin),,52.5044790,13.4349390,,,0,
9014155,,Falckensteinstr. (Berlin),,52.5000550,13.4439550,,,0,
9014156,,Heinrichplatz (Berlin),,52.5002740,13.4229180,,,0,
9015101,,Heckmannufer (Berlin),,52.4970150,13.4493040,,,0,
9015103,,Glogauer Str. (Berlin),,52.4935400,13.4372770,,,0,
9015104,,Ohlauer Str. (Berlin),,52.4955720,13.4304820,,,0,
9015151,,Taborstr. (Berlin),,52.4982170,13.4472670,,,0,
9015152,,Spreewaldplatz (Berlin),,52.4976480,13.4312850,,,0,
9016101,,U Gneisenaustr. (Berlin),,52.4912550,13.3953880,,,0,
9016103,,Zossener Brücke (Berlin),,52.4984310,13.3958510,,,0,
9016151,,Marheinekeplatz (Berlin),,52.4893860,13.3938270,,,0,
9016152,,Jüterboger Str. (Berlin),,52.4862520,13.3944200,,,0,
9016153,,Gneisenaustr./Baerwaldstr. (Berlin),,52.4903890,13.4002190,,,0,
9016154,,Urbanstr./Baerwaldstr. (Berlin),,52.4939130,13.4031880,,,0,
9016157,,Tempelherrenstr. (Berlin),,52.4943390,13.4006390,,,0,
9016201,,U Schönleinstr. (Berlin),,52.4931820,13.4222470,,,0,
9016202,,U Südstern (Berlin),,52.4892220,13.4076910,,,0,
9016203,,Geibelstr. (Berlin),,52.4933670,13.4067920,,,0,
9016204,,Körtestr. (Berlin),,52.4920430,13.4123450,,,0,
9016250,,Hasenheide (Berlin),,52.4875590,13.4189740,,,0,
9016251,,Fichtestr. (Berlin),,52.4883410,13.4129920,,,0,
9016252,,Graefestr. (Berlin),,52.4909720,13.4161540,,,0,
9016254,,Wilmsstr. (Berlin),,52.4951940,13.4043470,,,0,
9016255,,Kottbusser Brücke (Berlin),,52.4955370,13.4207030,,,0,
9017100,,Obentrautstr./U Mehringdamm (Berlin),,52.4958200,13.3893480,,,0,
9017101,,U Mehringdamm (Berlin),,52.4935780,13.3881580,,,0,
9017102,,U Platz der Luftbrücke (Berlin),,52.4849810,13.3863560,,,0,
9017103,,U Gleisdreieck (Berlin),,52.4995910,13.3742990,,,0,
9017104,,U Möckernbrücke (Berlin),,52.4989470,13.3832620,,,0,
9017105,,Yorckstr./Großbeerenstr. (Berlin),,52.4936380,13.3838310,,,0,
9017106,,Platz der Luftbrücke (Berlin),,52.4834450,13.3870440,,,0,
9017107,,Kaiserkorso (Berlin),,52.4840970,13.3842970,,,0,
9017109,,Katzbachstr./Kreuzbergstr. (Berlin),,52.4893130,13.3770700,,,0,
9017151,,Bergmannstr. (Berlin),,52.4900740,13.3865170,,,0,
9017152,,Kreuzberg/Wasserfall (Berlin),,52.4901770,13.3823380,,,0,
9017171,,U Mehringdamm (Berlin),,52.4927760,13.3883980,,,0,
9017181,,Columbiadamm/Platz der Luftbrücke (Berlin),,52.4843620,13.3900170,,,0,
9018101,,U Jakob-Kaiser-Platz (Berlin),,52.5369880,13.2936670,,,0,
9018102,,U Halemweg (Berlin),,52.5367060,13.2865840,,,0,
9018103,,Weltlingerbrücke (Berlin),,52.5395790,13.2950700,,,0,
9018105,,Hinckeldeybrücke (Berlin),,52.5466240,13.2992280,,,0,
9018106,,Goerdelerdamm (Berlin),,52.5349530,13.2981760,,,0,
9018151,,Habermannzeile (Berlin),,52.5396750,13.2912840,,,0,
9018152,,Hofackerzeile (Berlin),,52.5371090,13.2908700,,,0,
9018153,,Dahrendorfzeile (Berlin),,52.5351510,13.2890440,,,0,
9019102,,Gloedenpfad (Berlin),,52.5394120,13.3021400,,,0,
9019103,,Seestr./Beusselstr. (Berlin),,52.5382530,13.3263510,,,0,
9019105,,Buchholzweg (Berlin),,52.5469760,13.3177990,,,0,
9019152,,Gedenkstätte Plötzensee (Berlin),,52.5421040,13.3243890,,,0,
9019153,,Friedrich-Olbricht-Damm/Saatwinkler Damm (Berlin),,52.5475560,13.3125820,,,0,
9019154,,Stieffring (Berlin),,52.5450820,13.3127300,,,0,
9019155,,Thaters Privatweg (Berlin),,52.5394500,13.3101150,,,0,
9019156,,Kolonie Zukunft (Berlin),,52.5394670,13.3052370,,,0,
9019158,,Berliner Großmarkt (Berlin),,52.5366550,13.3270100,,,0,
9019202,,Reichweindamm (Berlin),,52.5356560,13.3004070,,,0,
9019203,,Friedrich-Olbricht-Damm/Heckerdamm (Berlin),,52.5412200,13.3149730,,,0,
9019204,,U Mierendorffplatz (Berlin),,52.5259810,13.3057210,,,0,
9019205,,Quedlinburger Str. (Berlin),,52.5229240,13.3059250,,,0,
9019252,,Wirmerzeile (Berlin),,52.5369070,13.3027140,,,0,
9019253,,Keplerstr. (Berlin),,52.5281480,13.3048710,,,0,
9020101,,Friedhöfe Fürstenbrunner Weg (Berlin),,52.5244730,13.2793010,,,0,
9020102,,Rohrdammbrücke (Berlin),,52.5285020,13.2697960,,,0,
9020103,,Kirschenallee (Berlin),,52.5203880,13.2672340,,,0,
9020105,,Machandelweg (Berlin),,52.5248290,13.2450680,,,0,
9020151,,Fürstenbrunner Weg (Berlin),,52.5209610,13.2799360,,,0,
9020152,,Kastanienallee (Berlin),,52.5195160,13.2722330,,,0,
9020153,,DRK-Kliniken Westend (Berlin),,52.5187160,13.2764380,,,0,
9020201,,S+U Jungfernheide Bhf (Berlin),,52.5302790,13.2990690,,,0,
9020202,,S Beusselstr. (Berlin),,52.5343170,13.3287080,,,0,
9020204,,Sophie-Charlotten-Str. (Berlin),,52.5188190,13.2867980,,,0,
9020206,,Pulsstr. (Berlin),,52.5243230,13.2856180,,,0,
9020207,,Tegeler Weg/S Jungfernheide (Berlin),,52.5294110,13.2962440,,,0,
9020208,,Osnabrücker Str. (Berlin),,52.5269180,13.2973930,,,0,
9020252,,Schlossbrücke (Berlin),,52.5229450,13.2999140,,,0,
9020271,,Mollwitzstr. (Berlin),,52.5221720,13.2859090,,,0,
9020272,,Schlosspark-Klinik (Berlin),,52.5228420,13.2887420,,,0,
9020281,,Goerdelersteg (Berlin),,52.5321810,13.3059050,,,0,
9021102,,Marchbrücke (Berlin),,52.5171530,13.3237560,,,0,
9021151,,Marchstr. (Berlin),,52.5134990,13.3226440,,,0,
9021152,,Franklinstr. (Berlin),,52.5220470,13.3281460,,,0,
9021181,,Helmholtzstr. (Berlin),,52.5208300,13.3212440,,,0,
9022101,,U Sophie-Charlotte-Platz (Berlin),,52.5109740,13.2974690,,,0,
9022103,,Klausenerplatz (Berlin),,52.5191290,13.2913740,,,0,
9022105,,Haubachstr. (Berlin),,52.5153940,13.3008690,,,0,
9022106,,Bismarckstr./Kaiser-Friedrich-Str. (Berlin),,52.5112880,13.3016020,,,0,
9022151,,Eosanderstr. (Berlin),,52.5182710,13.3040190,,,0,
9022152,,Seelingstr. (Berlin),,52.5163770,13.2964490,,,0,
9022153,,Zillestr. (Berlin),,52.5133710,13.2969060,,,0,
9022171,,Schloss Charlottenburg (Berlin),,52.5192580,13.2959600,,,0,
9022172,,Luisenplatz/Schloss Charlottenburg (Berlin),,52.5195780,13.2996370,,,0,
9022201,,U Deutsche Oper (Berlin),,52.5118310,13.3094250,,,0,
9022202,,U Richard-Wagner-Platz (Berlin),,52.5171570,13.3072270,,,0,
9022203,,Dovebrücke (Berlin),,52.5184410,13.3202740,,,0,
9022251,,Guerickestr. (Berlin),,52.5175110,13.3174470,,,0,
9022252,,Warburgzeile (Berlin),,52.5162140,13.3104100,,,0,
9023101,,U Ernst-Reuter-Platz (Berlin),,52.5115850,13.3225870,,,0,
9023104,,Otto-Suhr-Allee/Leibnizstr. (Berlin),,52.5146420,13.3152540,,,0,
9023105,,Uhlandstr./Kantstr. (Berlin),,52.5056270,13.3257360,,,0,
9023152,,Steinplatz (Berlin),,52.5090460,13.3262080,,,0,
9023172,,Jebensstr. (Berlin),,52.5071290,13.3304360,,,0,
9023201,,S+U Zoologischer Garten Bhf (Berlin),,52.5069240,13.3327130,,,0,
9023202,,U Augsburger Str. (Berlin),,52.5005600,13.3367760,,,0,
9023203,,U Kurfürstendamm (Berlin),,52.5037660,13.3314240,,,0,
9023204,,Europa-Center (Berlin),,52.5039340,13.3372610,,,0,
9023206,,Joachimsthaler Str./Kantstr. (Berlin),,52.5053550,13.3308090,,,0,
9023252,,Breitscheidplatz (Berlin),,52.5050490,13.3372070,,,0,
9023301,,U Uhlandstr. (Berlin),,52.5027460,13.3262390,,,0,
9023302,,U Adenauerplatz (Berlin),,52.5000890,13.3073530,,,0,
9023304,,Olivaer Platz (Berlin),,52.5009430,13.3130040,,,0,
9023305,,Lietzenburger Str./Uhlandstr. (Berlin),,52.5000310,13.3254650,,,0,
9023306,,Olivaer Platz Süd (Berlin),,52.4995600,13.3129190,,,0,
9023351,,Bleibtreustr. (Berlin),,52.5017350,13.3201700,,,0,
9023352,,Pariser Str. (Berlin),,52.4979130,13.3244290,,,0,
9023354,,Friedrich-Hollaender-Platz (Berlin),,52.5004490,13.3307350,,,0,
9024101,,S Charlottenburg Bhf (Berlin),,52.5050560,13.3052180,,,0,
9024102,,S Westkreuz (Berlin),,52.5011550,13.2830420,,,0,
9024104,,Amtsgerichtsplatz (Berlin),,52.5068620,13.2954330,,,0,
9024106,,S Messe Nord/ICC (Berlin),,52.5064580,13.2830490,,,0,
9024108,,Kaiser-Friedrich-Str./Kantstr. (Berlin),,52.5067840,13.3025000,,,0,
9024151,,Kuno-Fischer-Str. (Berlin),,52.5066180,13.2897840,,,0,
9024152,,Hindemithplatz (Berlin),,52.5032220,13.3077110,,,0,
9024200,,U Wilmersdorfer Str./Kantstr. (Berlin),,52.5066440,13.3070620,,,0,
9024201,,U Bismarckstr. (Berlin),,52.5115170,13.3052920,,,0,
9024202,,U Wilmersdorfer Str. (Berlin),,52.5058370,13.3068910,,,0,
9024203,,S Savignyplatz (Berlin),,52.5052260,13.3190080,,,0,
9024204,,Savignyplatz (Berlin),,52.5058180,13.3223840,,,0,
9024207,,Kantstr./Leibnizstr. (Berlin),,52.5062980,13.3139740,,,0,
9024208,,Bismarckstr./Leibnizstr. (Berlin),,52.5121310,13.3147810,,,0,
9024251,,Goethestr. (Berlin),,52.5088290,13.3143150,,,0,
9024252,,Schlüterstr. (Berlin),,52.5060770,13.3176490,,,0,
9024253,,Mommsenstr. (Berlin),,52.5033360,13.3135910,,,0,
9025101,,Scholzplatz (Berlin),,52.5065990,13.2282930,,,0,
9025151,,Ragniter Allee (Berlin),,52.5070920,13.2353020,,,0,
9025152,,Mohrunger Allee (Berlin),,52.5079420,13.2493480,,,0,
9025154,,Am Postfenn (Berlin),,52.5007350,13.2095440,,,0,
9025155,,Schildhorn (Berlin),,52.4945730,13.1995100,,,0,
9025202,,U Ruhleben (Berlin),,52.5255900,13.2419070,,,0,
9025203,,U Olympia-Stadion (Berlin),,52.5170520,13.2505050,,,0,
9025252,,Spandauer Damm/Reichsstr. (Berlin),,52.5237060,13.2501050,,,0,
9025253,,Park Ruhwald (Berlin),,52.5225580,13.2550230,,,0,
9025254,,Meiningenallee (Berlin),,52.5217840,13.2593030,,,0,
9025255,,Wiesendammbrücke (Berlin),,52.5279090,13.2435930,,,0,
9025301,,Flatowallee/Olympiastadion (Berlin),,52.5074760,13.2415290,,,0,
9025321,,S Olympiastadion (Berlin),,52.5111380,13.2411160,,,0,
9025401,,Maikäferpfad (Berlin),,52.4947740,13.2664380,,,0,
9025423,,S Messe Süd (Berlin),,52.4987750,13.2704550,,,0,
9025424,,S Pichelsberg (Berlin),,52.5102680,13.2272020,,,0,
9025425,,Jafféstr. (Berlin),,52.4993490,13.2721800,,,0,
9025451,,Alte Allee (Berlin),,52.4921230,13.2630490,,,0,
9025452,,Kiefernweg (Berlin),,52.4936030,13.2649320,,,0,
9025551,,Messegelände/Verwaltung (Berlin),,52.5015130,13.2749230,,,0,
9025552,,Messegelände/ICC (Berlin),,52.5046980,13.2796100,,,0,
9026101,,U Neu-Westend (Berlin),,52.5164130,13.2599160,,,0,
9026102,,Brixplatz (Berlin),,52.5196960,13.2562230,,,0,
9026105,,S Heerstr. (Berlin),,52.5082760,13.2585190,,,0,
9026151,,Hessenallee (Berlin),,52.5143020,13.2639800,,,0,
9026152,,Reichsstr./Kastanienallee (Berlin),,52.5114810,13.2689070,,,0,
9026153,,Württembergallee (Berlin),,52.5089460,13.2656230,,,0,
9026154,,Westendallee (Berlin),,52.5213270,13.2532490,,,0,
9026171,,Altenburger Allee (Berlin),,52.5185910,13.2579150,,,0,
9026201,,U Theodor-Heuss-Platz (Berlin),,52.5098020,13.2729830,,,0,
9026202,,U Kaiserdamm (Berlin),,52.5099740,13.2819730,,,0,
9026203,,U Theodor-Heuss-Platz Süd (Berlin),,52.5089110,13.2722210,,,0,
9026204,,Messedamm/ZOB (Berlin),,52.5070040,13.2807080,,,0,
9026205,,Knobelsdorffstr. (Berlin),,52.5128290,13.2814370,,,0,
9026206,,Königin-Elisabeth-Str/Spandauer Damm (Berlin),,52.5183510,13.2803020,,,0,
9026207,,S Westend (Berlin),,52.5186130,13.2842430,,,0,
9026208,,Masurenallee/ZOB (Berlin),,52.5067380,13.2787860,,,0,
9026209,,Neue Kantstr./ZOB (Berlin),,52.5063890,13.2811320,,,0,
9026251,,Haus des Rundfunks (Berlin),,52.5074260,13.2765960,,,0,
9026271,,U Theodor-Heuss-Platz West (Berlin),,52.5100920,13.2710760,,,0,
9027101,,Oberjägerweg (Berlin),,52.5850290,13.1769410,,,0,
9027201,,Johannesstift (Berlin),,52.5667190,13.1926290,,,0,
9027202,,Klinkeplatz (Berlin),,52.5554430,13.1985900,,,0,
9027204,,Havelschanze (Berlin),,52.5540780,13.2073250,,,0,
9027205,,Aalemannufer (Berlin),,52.5732640,13.2126910,,,0,
9027206,,Rauchstr. (Berlin),,52.5615250,13.2084440,,,0,
9027207,,Cautiusstr. (Berlin),,52.5625150,13.1968800,,,0,
9027251,,Mögeldorfer Weg (Berlin),,52.5598400,13.1974560,,,0,
9027252,,Schülerbergstr. (Berlin),,52.5518990,13.1997610,,,0,
9027253,,Amorbacher Weg (Berlin),,52.5572810,13.2077820,,,0,
9027254,,Mertensstr. (Berlin),,52.5653450,13.2093460,,,0,
9027255,,Siedlung Hakenfelde (Berlin),,52.5708550,13.2127720,,,0,
9027256,,Goltzstr./Rauchstr. (Berlin),,52.5611200,13.2129750,,,0,
9027257,,Mertensstr./Goltzstr. (Berlin),,52.5646910,13.2152860,,,0,
9027258,,Rustweg (Berlin),,52.5754500,13.2116300,,,0,
9027259,,Werderstr. (Berlin),,52.5677650,13.2108140,,,0,
9027260,,Eschenweg (Berlin),,52.5676550,13.2101760,,,0,
9027261,,Hugo-Cassirer-Str. (Berlin),,52.5599270,13.2188410,,,0,
9027262,,Spandauer-See-Brücke (Berlin),,52.5563380,13.2191840,,,0,
9027263,,Ashdodstr. (Berlin),,52.5600530,13.2206140,,,0,
9027291,,Papenberger Weg (Berlin),,52.5782760,13.2103510,,,0,
9027292,,Bürgerablage (Berlin),,52.5843830,13.2071990,,,0,
9027301,,Am Kiesteich (Berlin),,52.5511630,13.1655070,,,0,
9027302,,Falkenseer Chaussee/Stadtrandstr. (Berlin),,52.5534450,13.1536400,,,0,
9027304,,Wasserwerk Spandau (Berlin),,52.5566670,13.1641930,,,0,
9027305,,Freudstr./Goldkäferweg (Berlin),,52.5567240,13.1491550,,,0,
9027306,,Waldkrankenhaus (Berlin),,52.5621880,13.1583820,,,0,
9027307,,Griesingerstr./Stadtrandstr. (Berlin),,52.5601780,13.1571640,,,0,
9027308,,Hochhausweg (Berlin),,52.5504420,13.1528240,,,0,
9027309,,Spektefeld (Berlin),,52.5483800,13.1624700,,,0,
9027351,,Paul-Gerhardt-Ring (Berlin),,52.5487140,13.1595600,,,0,
9027352,,Im Spektefeld/Schulzentrum (Berlin),,52.5490340,13.1562220,,,0,
9027353,,Glühwürmchenweg (Berlin),,52.5566480,13.1550950,,,0,
9027354,,Wolburgsweg (Berlin),,52.5556190,13.1692520,,,0,
9027355,,Frankenwaldstr. (Berlin),,52.5544060,13.1747490,,,0,
9027356,,Friedhof In den Kisseln (Berlin),,52.5530950,13.1800220,,,0,
9027358,,Sandwiesenweg (Berlin),,52.5628800,13.1657290,,,0,
9027359,,Bötzow-Bahn (Berlin),,52.5608220,13.1721040,,,0,
9027360,,Gliensteig (Berlin),,52.5594930,13.1773480,,,0,
9027361,,Schwanter Weg (Berlin),,52.5581400,13.1823990,,,0,
9027362,,Freudstr. (Berlin),,52.5541510,13.1493820,,,0,
9027363,,Am Bogen (Berlin),,52.5523090,13.1595070,,,0,
9027364,,Beerwinkel (Berlin),,52.5517900,13.1620590,,,0,
9027365,,Spektebrücke (Berlin),,52.5458550,13.1615040,,,0,
9027372,,Radelandstr./Pflegeheim (Berlin),,52.5639720,13.1615850,,,0,
9027401,,Falkenseer Chaussee/Zeppelinstr. (Berlin),,52.5475660,13.1847390,,,0,
9027402,,Pionierstr./Zeppelinstr. (Berlin),,52.5515120,13.1855820,,,0,
9027403,,Hohenzollernring/Falkenseer Chaussee (Berlin),,52.5464250,13.1908990,,,0,
9027404,,Dyrotzer Str. (Berlin),,52.5416200,13.1680700,,,0,
9027405,,Pausiner Str. (Berlin),,52.5561550,13.1885090,,,0,
9027451,,Spekteweg (Berlin),,52.5419970,13.1834980,,,0,
9027452,,Merziger Str. (Berlin),,52.5447770,13.1840740,,,0,
9027453,,Westerwaldstr. (Berlin),,52.5487730,13.1781220,,,0,
9027454,,Mülheimer Str. (Berlin),,52.5499350,13.1724180,,,0,
9027455,,Falkenhagener Tor (Berlin),,52.5502060,13.1902650,,,0,
9027456,,Zweibrücker Str. (Berlin),,52.5469010,13.1882590,,,0,
9027457,,Viersener Str. (Berlin),,52.5401130,13.1751050,,,0,
9027458,,Leuthingerweg (Berlin),,52.5418380,13.1642430,,,0,
9028101,,Eiswerderstr. (Berlin),,52.5479410,13.2098100,,,0,
9028151,,Kirchhofstr. (Berlin),,52.5452890,13.2081010,,,0,
9028152,,Neue Bergstr. (Berlin),,52.5507260,13.2098870,,,0,
9029101,,S Spandau Bhf (Berlin),,52.5348020,13.1974820,,,0,
9029102,,Zeppelinstr./Seegefelder Str. (Berlin),,52.5384940,13.1824460,,,0,
9029103,,Falkenseer Platz (Berlin),,52.5409930,13.2019840,,,0,
9029104,,Borkzeile (Berlin),,52.5366350,13.1903400,,,0,
9029105,,Galenstr. (Berlin),,52.5356970,13.1942930,,,0,
9029106,,Borchertweg (Berlin),,52.5436530,13.1931090,,,0,
9029152,,Dallgower Str. (Berlin),,52.5376590,13.1868300,,,0,
9029153,,Jenneweg (Berlin),,52.5409470,13.1949810,,,0,
9029154,,Galenstr./Hohenzollernring (Berlin),,52.5387200,13.1974710,,,0,
9029155,,Askanierring (Berlin),,52.5459510,13.1933930,,,0,
9029156,,Flankenschanze (Berlin),,52.5428430,13.1986150,,,0,
9029157,,Schulzenstr. (Berlin),,52.5390880,13.1787620,,,0,
9029201,,Wröhmännerpark (Berlin),,52.5420490,13.2059630,,,0,
9029202,,Moritzstr. (Berlin),,52.5386060,13.2007250,,,0,
9029203,,Hügelschanze (Berlin),,52.5486620,13.2008370,,,0,
9029204,,Windmühlenberg (Berlin),,52.5486370,13.1943500,,,0,
9029251,,Kurze Str./Mittelstr. (Berlin),,52.5462250,13.2000780,,,0,
9029252,,Predigergarten (Berlin),,52.5453070,13.2036940,,,0,
9029301,,U Altstadt Spandau (Berlin),,52.5391650,13.2067690,,,0,
9029302,,S+U Rathaus Spandau (Berlin),,52.5358020,13.1998970,,,0,
9029303,,Breite Str./Markt (Berlin),,52.5360400,13.2047670,,,0,
9029305,,"Berlin, Staaken Bhf",,52.5377430,13.1417320,,,0,
9029371,,S+U Rathaus Spandau (Berlin) [Bus Seegef. Str.],,52.5349240,13.1987530,,,0,
9030101,,Krematorium Ruhleben (Berlin),,52.5277630,13.2318010,,,0,
9030102,,Polizeidirektion 2 (Berlin),,52.5283390,13.2282510,,,0,
9030151,,Güterbahnhof Ruhleben (Berlin),,52.5286770,13.2216590,,,0,
9030152,,Heidereuterstr. (Berlin),,52.5287310,13.2076610,,,0,
9030153,,Freiheit 16-43 (Berlin),,52.5308360,13.2214240,,,0,
9030154,,Pichelswerderstr. (Berlin),,52.5318130,13.2137880,,,0,
9030155,,Werkring (Berlin),,52.5289610,13.2375810,,,0,
9030156,,Tiefwerderweg (Berlin),,52.5260920,13.2073090,,,0,
9030191,,Klärwerkstr. (Berlin),,52.5295470,13.2330300,,,0,
9030202,,S Stresow (Berlin),,52.5325080,13.2091360,,,0,
9030251,,Stresowplatz (Berlin),,52.5338620,13.2067710,,,0,
9030272,,S Stresow [Vorplatz],,52.5322700,13.2086720,,,0,
9030291,,Ruhlebener Str./Grunewaldstr. (Berlin),,52.5305650,13.2040280,,,0,
9031101,,Brunsbütteler Damm/Ruhlebener Str. (Berlin),,52.5329610,13.1981980,,,0,
9031102,,Ziegelhof (Berlin),,52.5290440,13.1953510,,,0,
9031103,,Päwesiner Weg (Berlin),,52.5338310,13.1769120,,,0,
9031104,,Krumme Gärten (Berlin),,52.5285310,13.1918890,,,0,
9031151,,Metzer Platz (Berlin),,52.5250540,13.1971720,,,0,
9031152,,Elsflether Weg (Berlin),,52.5339060,13.1936550,,,0,
9031153,,Grünhofer Weg (Berlin),,52.5343200,13.1882140,,,0,
9031154,,Nauener Str. (Berlin),,52.5341080,13.1824600,,,0,
9031155,,Egelpfuhlstr. (Berlin),,52.5335830,13.1701700,,,0,
9031156,,Harburger Weg (Berlin),,52.5333000,13.1632950,,,0,
9032101,,Am Omnibushof (Berlin),,52.5176240,13.1862450,,,0,
9032102,,Heerstr./Wilhelmstr. (Berlin),,52.5166970,13.1791640,,,0,
9032103,,Weinmeisterhornweg (Berlin),,52.5110210,13.1715880,,,0,
9032104,,Melanchthonplatz (Berlin),,52.5216680,13.1889330,,,0,
9032105,,Lutoner Str. (Berlin),,52.5253050,13.1775090,,,0,
9032106,,Gatower Str./Heerstr. (Berlin),,52.5155440,13.1848490,,,0,
9032152,,Földerichplatz (Berlin),,52.5210560,13.1934540,,,0,
9032153,,Kolonie Hasenheide (Berlin),,52.5234100,13.1846040,,,0,
9032155,,Rodensteinstr. (Berlin),,52.5137380,13.1748420,,,0,
9032156,,Karolinenhöhe (Berlin),,52.5084270,13.1675860,,,0,
9032157,,Seecktstr. (Berlin),,52.5277630,13.1878890,,,0,
9032158,,Seeburger Str./Päwesiner Weg (Berlin),,52.5263310,13.1818830,,,0,
9032201,,Gatower Str./Weinmeisterhornweg (Berlin),,52.5091470,13.1801700,,,0,
9032251,,Sandheideweg (Berlin),,52.5124480,13.1826150,,,0,
9032252,,Zur Haveldüne (Berlin),,52.5034000,13.1797210,,,0,
9032253,,Biberburg (Berlin),,52.4981480,13.1800520,,,0,
9032254,,Emil-Basdeck-Str. (Berlin),,52.4934190,13.1801900,,,0,
9032255,,Pfirsichweg (Berlin),,52.4908120,13.1803260,,,0,
9032256,,Gatow Kirche (Berlin),,52.4867480,13.1822200,,,0,
9032301,,Teltower Str. (Berlin),,52.5270230,13.2164560,,,0,
9032302,,Stößenseebrücke (Berlin),,52.5089520,13.2171350,,,0,
9032351,,Freybrücke (Berlin),,52.5123020,13.2006410,,,0,
9032352,,Pichelswerder (Berlin),,52.5106550,13.2087860,,,0,
9032353,,Götelstr. (Berlin),,52.5237470,13.2028100,,,0,
9032401,,Pichelsdorfer Str./Weißenburger Str. (Berlin),,52.5225140,13.1977520,,,0,
9032402,,Alt-Pichelsdorf (Berlin),,52.5132110,13.1969540,,,0,
9032405,,Metzer Str. (Berlin),,52.5254650,13.1938680,,,0,
9032451,,Genfenbergstr. (Berlin),,52.5175990,13.1976330,,,0,
9032452,,Jaczostr. (Berlin),,52.5141590,13.1912050,,,0,
9032481,,Betckestr. (Berlin),,52.5210120,13.1977990,,,0,
9033101,,U Zitadelle (Berlin),,52.5375260,13.2176300,,,0,
9033103,,Zitadelle Spandau (Berlin),,52.5385490,13.2142690,,,0,
9033151,,Motorradwerk (Berlin),,52.5371070,13.2233670,,,0,
9034101,,U Paulsternstr. (Berlin),,52.5381020,13.2485980,,,0,
9034102,,U Haselhorst (Berlin),,52.5387220,13.2323140,,,0,
9034103,,Paulsternstr./Gartenfelder Str. (Berlin),,52.5442830,13.2462090,,,0,
9034104,,Lüdenscheider Weg (Berlin),,52.5471230,13.2367660,,,0,
9034105,,Haselhorster Damm/Gartenfelder Str. (Berlin),,52.5431280,13.2406330,,,0,
9034151,,Siedlung Haselhorst (Berlin),,52.5419200,13.2358820,,,0,
9034153,,Burscheider Weg (Berlin),,52.5449410,13.2383260,,,0,
9034154,,Lüdenscheider Weg/Daumstr. (Berlin),,52.5446940,13.2318330,,,0,
9034155,,Kolonie Haselbusch (Berlin),,52.5527570,13.2308790,,,0,
9034156,,Stadion Haselhorst (Berlin),,52.5464140,13.2306870,,,0,
9034158,,Kleine Eiswerderstr. (Berlin),,52.5491590,13.2276830,,,0,
9034160,,Daumstr./Rhenaniastr. (Berlin),,52.5548140,13.2257620,,,0,
9034161,,Haveleck (Berlin),,52.5578370,13.2271140,,,0,
9034170,,U Haselhorst/Daumstr. (Berlin),,52.5395840,13.2323680,,,0,
9035101,,U Siemensdamm (Berlin),,52.5370290,13.2733290,,,0,
9035103,,Saatwinkler Damm/Rohrdamm (Berlin),,52.5479590,13.2589470,,,0,
9035104,,Quellweg (Berlin),,52.5367650,13.2677790,,,0,
9035105,,Mäckeritzbrücke (Berlin),,52.5486550,13.2702740,,,0,
9035106,,Gartenfeld (Berlin),,52.5483200,13.2477830,,,0,
9035151,,Wernerwerkdamm (Berlin),,52.5354890,13.2669610,,,0,
9035152,,Toeplerstr./Halemweg (Berlin),,52.5381610,13.2867000,,,0,
9035153,,Schweiggerweg (Berlin),,52.5381720,13.2823080,,,0,
9035154,,Goebelplatz (Berlin),,52.5381220,13.2802880,,,0,
9035155,,Popitzweg (Berlin),,52.5368800,13.2788370,,,0,
9035156,,Saatwinkler Damm 137 (Berlin),,52.5484650,13.2628980,,,0,
9036101,,U Rohrdamm (Berlin),,52.5369080,13.2628750,,,0,
9036102,,Wohlrabedamm/Rohrdamm (Berlin),,52.5333880,13.2684340,,,0,
9036103,,Wohlrabedamm Mitte (Berlin),,52.5325600,13.2727570,,,0,
9036151,,Schaltwerk (Berlin),,52.5375680,13.2565420,,,0,
9036152,,Rohrdamm/Wasserwerk (Berlin),,52.5312430,13.2673550,,,0,
9036153,,Straße am Schaltwerk (Berlin),,52.5416400,13.2624070,,,0,
9036154,,Köttgenstr. (Berlin),,52.5439550,13.2610880,,,0,
9036155,,Harriesstr. (Berlin),,52.5461510,13.2599270,,,0,
9037101,,Magistratsweg/Brunsbütteler Damm (Berlin),,52.5329850,13.1578780,,,0,
9037102,,Heidebergplan (Berlin),,52.5408440,13.1472810,,,0,
9037103,,Brunsbütteler Damm/Nennhauser Damm (Berlin),,52.5325850,13.1426290,,,0,
9037104,,Staakener Feldstr. (Berlin),,52.5352860,13.1374380,,,0,
9037105,,Gartenstadt Staaken (Berlin),,52.5396440,13.1495930,,,0,
9037106,,Klosterbuschweg (Berlin),,52.5391750,13.1571570,,,0,
9037107,,Straße 603 (Berlin),,52.5445720,13.1511960,,,0,
9037108,,Eckenerweg (Berlin),,52.5417020,13.1505310,,,0,
9037109,,Döberitzer Weg (Berlin),,52.5286430,13.1329490,,,0,
9037111,,Schulstr. (Berlin),,52.5301870,13.1331360,,,0,
9037113,,Am alten Gaswerk (Berlin),,52.5362960,13.1305670,,,0,
9037114,,Brunsbütteler Damm/Stadtgrenze (Berlin),,52.5353740,13.1245000,,,0,
9037122,,Brandwerder (Berlin),,52.5354830,13.1569710,,,0,
9037130,,Möthlower Str. (Berlin),,52.5479400,13.1374260,,,0,
9037131,,Alfons-Loewe-Str. (Berlin),,52.5490580,13.1333270,,,0,
9037132,,Ungewitterweg (Berlin),,52.5427610,13.1433360,,,0,
9037133,,Seegefelder Weg (Berlin),,52.5463060,13.1437820,,,0,
9037151,,Louise-Schroeder-Siedlung (Berlin),,52.5329070,13.1529680,,,0,
9037152,,Zweiwinkelweg (Berlin),,52.5328260,13.1483830,,,0,
9037154,,Seegefelder Weg/Klosterbuschweg (Berlin),,52.5430870,13.1578490,,,0,
9037155,,Isenburger Weg (Berlin),,52.5402740,13.1355480,,,0,
9037156,,Fachinger Str. (Berlin),,52.5407430,13.1325820,,,0,
9037158,,Oberdorfer Steig (Berlin),,52.5416570,13.1319720,,,0,
9037159,,Hauptstr. (Berlin),,52.5303410,13.1405370,,,0,
9037161,,Am Zeppelinpark (Berlin),,52.5288420,13.1271330,,,0,
9037167,,Ferbitzer Weg (Berlin),,52.5443730,13.1289170,,,0,
9037168,,"Berlin, Albrechtshof Bhf",,52.5494500,13.1289740,,,0,
9037169,,Jänickendorfer Weg (Berlin),,52.5483880,13.1291090,,,0,
9037171,,Am Kurzen Weg (Berlin),,52.5396460,13.1466160,,,0,
9037191,,Finkenkruger Weg (Berlin),,52.5396150,13.1434020,,,0,
9037201,,Rudolf-Wissell-Siedlung (Berlin),,52.5235280,13.1618430,,,0,
9037202,,Sandstr. (Berlin),,52.5185490,13.1700060,,,0,
9037203,,Hahneberg (Berlin),,52.5234780,13.1466360,,,0,
9037204,,Reimerweg (Berlin),,52.5215830,13.1557800,,,0,
9037205,,Leubnitzer Weg (Berlin),,52.5229700,13.1728790,,,0,
9037206,,Weidenweg (Berlin),,52.5253780,13.1378740,,,0,
9037207,,Heerstr./Magistratsweg (Berlin),,52.5210000,13.1629700,,,0,
9037208,,Blasewitzer Ring (Berlin),,52.5225900,13.1749310,,,0,
9037209,,Buschower Weg (Berlin),,52.5265100,13.1323040,,,0,
9037211,,Heerstr./Nennhauser Damm (Berlin),,52.5289520,13.1231280,,,0,
9037251,,Baluschekweg (Berlin),,52.5239870,13.1663640,,,0,
9037252,,Springerzeile (Berlin),,52.5276420,13.1601690,,,0,
9037254,,Obstallee (Berlin),,52.5198130,13.1730740,,,0,
9037255,,Heerstr. 438-446 (Berlin),,52.5205740,13.1605860,,,0,
9037274,,Reimerweg (Berlin),,52.5220010,13.1544360,,,0,
9038103,,Landschaftsfriedhof Gatow (Berlin),,52.4983350,13.1528580,,,0,
9038104,,Alt-Gatow (Berlin),,52.4834150,13.1830720,,,0,
9038151,,Annenweg (Berlin),,52.4814580,13.1737610,,,0,
9038152,,Gatower Heide (Berlin),,52.4822840,13.1519090,,,0,
9038201,,Breitehornweg (Berlin),,52.4704110,13.1694790,,,0,
9038202,,Habichtswald (Berlin),,52.4796070,13.1425360,,,0,
9038204,,Ritterfelddamm/Potsdamer Chaussee (Berlin),,52.4775320,13.1199190,,,0,
9038251,,Helleberge (Berlin),,52.4742430,13.1745250,,,0,
9038252,,Am Graben (Berlin),,52.4789050,13.1792570,,,0,
9038254,,Christoph-Kolumbus-Str. (Berlin),,52.4673580,13.1655860,,,0,
9038255,,General-Steinhoff-Kaserne (Berlin),,52.4645270,13.1618620,,,0,
9038256,,Außenweg (Berlin),,52.4851840,13.1355410,,,0,
9039101,,Gutsstr. (Berlin),,52.4749430,13.1209710,,,0,
9039102,,Alt-Kladow (Berlin),,52.4543190,13.1442790,,,0,
9039103,,Hottengrund (Berlin),,52.4455800,13.1259170,,,0,
9039105,,Lanzendorfer Weg (Berlin),,52.4487700,13.1145700,,,0,
9039106,,Parnemannweg (Berlin),,52.4522640,13.1383560,,,0,
9039107,,Krampnitzer Weg/Selbitzer Str. (Berlin),,52.4532740,13.1220390,,,0,
9039108,,Waldallee (Berlin),,52.4657000,13.1289770,,,0,
9039109,,Krankenhaus Havelhöhe (Berlin),,52.4626800,13.1587240,,,0,
9039150,,Landstadt Gatow (Berlin),,52.4725450,13.1273860,,,0,
9039151,,Grimmelshausenstr. (Berlin),,52.4529500,13.1286940,,,0,
9039152,,Pottensteiner Weg (Berlin),,52.4504660,13.1185840,,,0,
9039153,,Neukladower Allee (Berlin),,52.4598150,13.1539410,,,0,
9039154,,Finnenhaus-Siedlung (Berlin),,52.4566190,13.1480160,,,0,
9039155,,Schallweg (Berlin),,52.4560600,13.1407930,,,0,
9039156,,Schwabinger Weg (Berlin),,52.4582240,13.1381420,,,0,
9039157,,Gredinger Str. (Berlin),,52.4616460,13.1337280,,,0,
9039158,,Seekorso (Berlin),,52.4679080,13.1264430,,,0,
9039159,,Kurpromenade (Berlin),,52.4707750,13.1235730,,,0,
9039160,,Gößweinsteiner Gang (Berlin),,52.4508050,13.1320820,,,0,
9039161,,Temmeweg (Berlin),,52.4492620,13.1299390,,,0,
9039162,,Kaserne Hottengrund (Berlin),,52.4472900,13.1274760,,,0,
9039163,,Benfeyweg (Berlin),,52.4574260,13.1239100,,,0,
9039164,,Zingerleweg (Berlin),,52.4604370,13.1267530,,,0,
9039165,,Katzwanger Steig (Berlin),,52.4638460,13.1292530,,,0,
9040101,,S Halensee (Berlin),,52.4967010,13.2901570,,,0,
9040102,,Joachim-Friedrich-Str./Westfälische Str. (Berlin),,52.4958910,13.2959940,,,0,
9040104,,Kurfürstendamm/Joachim-Friedrich-Str. (Berlin),,52.4980440,13.2963510,,,0,
9040151,,Lehniner Platz/Schaubühne (Berlin),,52.4989280,13.3018110,,,0,
9040152,,Seesener Str. (Berlin),,52.4926770,13.2965760,,,0,
9040153,,Grieser Platz (Berlin),,52.4908910,13.2930490,,,0,
9041101,,U Fehrbelliner Platz (Berlin),,52.4902050,13.3145250,,,0,
9041102,,U Blissestr. (Berlin),,52.4863510,13.3216230,,,0,
9041151,,Westfälische Str./Konstanzer Str. (Berlin),,52.4915020,13.3110300,,,0,
9041152,,Hoffmann-von-Fallersleben-Platz (Berlin),,52.4884800,13.3079950,,,0,
9041154,,Mansfelder Str./Barstr. (Berlin),,52.4883800,13.3145880,,,0,
9041201,,U Konstanzer Str. (Berlin),,52.4935700,13.3100900,,,0,
9041251,,Eisenzahnstr. (Berlin),,52.4934570,13.3049040,,,0,
9041252,,Düsseldorfer Str. (Berlin),,52.4969770,13.3116340,,,0,
9041281,,Hochmeisterplatz (Berlin),,52.4946550,13.3013910,,,0,
9042101,,U Spichernstr. (Berlin),,52.4965850,13.3306180,,,0,
9043101,,U Hohenzollernplatz (Berlin),,52.4938370,13.3240560,,,0,
9043103,,Güntzelstr./Uhlandstr. (Berlin),,52.4915450,13.3232510,,,0,
9043151,,Fechnerstr. (Berlin),,52.4895540,13.3228820,,,0,
9043171,,U Blissestr./Fechnerstr. (Berlin),,52.4863310,13.3233890,,,0,
9043201,,U Güntzelstr. (Berlin),,52.4919950,13.3312160,,,0,
9043252,,Landhausstr. (Berlin),,52.4868490,13.3285280,,,0,
9044101,,S Hohenzollerndamm (Berlin),,52.4883170,13.3007170,,,0,
9044102,,Am Volkspark (Berlin),,52.4836690,13.3203650,,,0,
9044104,,Detmolder Str./Blissestr. (Berlin),,52.4791220,13.3203320,,,0,
9044151,,Brabanter Platz (Berlin),,52.4818310,13.3158940,,,0,
9044171,,Friedrichsruher Str. (Berlin),,52.4871930,13.2991970,,,0,
9044201,,U Berliner Str. (Berlin),,52.4870510,13.3313610,,,0,
9044202,,S+U Bundesplatz (Berlin),,52.4773690,13.3291550,,,0,
9044204,,Kufsteiner Str. (Berlin),,52.4858230,13.3366230,,,0,
9044205,,Birger-Forell-Platz (Berlin),,52.4818080,13.3203680,,,0,
9044206,,Durlacher Str. (Berlin),,52.4816530,13.3294460,,,0,
9044251,,Wexstr. (Berlin),,52.4786760,13.3328010,,,0,
9045101,,U Rüdesheimer Platz (Berlin),,52.4724650,13.3143930,,,0,
9045102,,S+U Heidelberger Platz (Berlin),,52.4794500,13.3118490,,,0,
9045103,,Wiesbadener Str./Laubacher Str. (Berlin),,52.4715760,13.3192230,,,0,
9045104,,Zoppoter Str. (Berlin),,52.4733230,13.2993770,,,0,
9045151,,Hanauer Str. (Berlin),,52.4770190,13.3202690,,,0,
9045152,,Deidesheimer Str. (Berlin),,52.4743220,13.3203800,,,0,
9045153,,Laubenheimer Str. (Berlin),,52.4696130,13.3155440,,,0,
9045154,,Görresstr. (Berlin),,52.4756740,13.3248800,,,0,
9045155,,Südwestkorso/Taunusstr. (Berlin),,52.4739380,13.3225760,,,0,
9045156,,Forckenbeckstr./Sportanlagen (Berlin),,52.4783130,13.3090180,,,0,
9045157,,Rudolf-Mosse-Platz (Berlin),,52.4753970,13.3036330,,,0,
9045158,,Kirchstr. (Berlin),,52.4741570,13.2946190,,,0,
9045159,,Sodener Str. (Berlin),,52.4727170,13.3046870,,,0,
9045160,,Binger Str. (Berlin),,52.4723750,13.3095780,,,0,
9046101,,Salzbrunner Str. (Berlin),,52.4842410,13.2937810,,,0,
9046151,,Forckenbeckstr. (Berlin),,52.4819400,13.2896950,,,0,
9046152,,Cunostr. (Berlin),,52.4853770,13.2959790,,,0,
9046203,,Elsterplatz (Berlin),,52.4796510,13.2853600,,,0,
9046251,,Rathaus Schmargendorf (Berlin),,52.4773950,13.2878550,,,0,
9046273,,Elsterplatz (Berlin),,52.4792960,13.2857470,,,0,
9046301,,Berkaer Str./Breite Str. (Berlin),,52.4753330,13.2906500,,,0,
9046351,,Platz am Wilden Eber (Berlin),,52.4712370,13.2896620,,,0,
9046352,,Sulzaer Str. (Berlin),,52.4759770,13.2860030,,,0,
9046353,,Bernadottestr. (Berlin),,52.4676720,13.2893370,,,0,
9046354,,Roseneck/Teplitzer Str. (Berlin),,52.4774930,13.2804840,,,0,
9047151,,Havelweg (Berlin),,52.4915340,13.2040800,,,0,
9047152,,Waldhaus (Berlin),,52.4804130,13.1973730,,,0,
9047153,,Grunewaldturm (Berlin),,52.4786010,13.1978530,,,0,
9047154,,Lindwerder (Berlin),,52.4671920,13.1965570,,,0,
9047155,,Havelchaussee (Berlin),,52.4597930,13.1906190,,,0,
9047156,,Große Steinlanke (Berlin),,52.4547770,13.1898070,,,0,
9048101,,S Grunewald (Berlin),,52.4886830,13.2619490,,,0,
9048102,,Wangenheimstr. (Berlin),,52.4881590,13.2880810,,,0,
9048103,,Rathenauplatz (Berlin),,52.4959240,13.2872330,,,0,
9048104,,Herthastr. (Berlin),,52.4864730,13.2844100,,,0,
9048107,,Hagenplatz (Berlin),,52.4833210,13.2659170,,,0,
9048108,,Roseneck/Hohenzollerndamm (Berlin),,52.4771230,13.2814590,,,0,
9048109,,Roseneck (Berlin),,52.4764390,13.2815420,,,0,
9048110,,Erdener Str. (Berlin),,52.4902140,13.2759210,,,0,
9048151,,Trabener Steg (Berlin),,52.4975620,13.2829370,,,0,
9048152,,Bismarckplatz (Berlin),,52.4919410,13.2849520,,,0,
9048153,,Lynarstr. (Berlin),,52.4895530,13.2846770,,,0,
9048154,,Elgersburger Str. (Berlin),,52.4828920,13.2856310,,,0,
9048155,,Hasensprung (Berlin),,52.4868070,13.2718770,,,0,
9048156,,Herbertstr. (Berlin),,52.4917860,13.2801330,,,0,
9048157,,Joseph-Joachim-Platz (Berlin),,52.4821230,13.2811770,,,0,
9048158,,Taubertstr. (Berlin),,52.4846020,13.2679860,,,0,
9048159,,Richard-Strauss-Str. (Berlin),,52.4799520,13.2715910,,,0,
9048160,,Hubertusbader Str. (Berlin),,52.4784080,13.2756090,,,0,
9048161,,Delbrückstr. (Berlin),,52.4841810,13.2827980,,,0,
9048162,,Kronberger Str. (Berlin),,52.4759380,13.2796580,,,0,
9049101,,Neuruppiner Str. (Berlin),,52.4211470,13.2266650,,,0,
9049103,,Behring-Krankenhaus (Berlin),,52.4238420,13.2516870,,,0,
9049104,,Fürstenstr. (Berlin),,52.4337600,13.2426460,,,0,
9049105,,Mittelstr. (Berlin),,52.4347410,13.2493490,,,0,
9049150,,Fercher Str. (Berlin),,52.4233370,13.2338990,,,0,
9049151,,Wolzogenstr. (Berlin),,52.4322870,13.2357080,,,0,
9049154,,Ludwigsfelder Str. (Berlin),,52.4243900,13.2397210,,,0,
9049155,,Loebellstr. (Berlin),,52.4261030,13.2452530,,,0,
9049156,,Radtkestr. (Berlin),,52.4269720,13.2479970,,,0,
9049157,,Camphausenstr. (Berlin),,52.4281380,13.2516910,,,0,
9049201,,S Zehlendorf (Berlin),,52.4312120,13.2592330,,,0,
9049202,,S Sundgauer Str. (Berlin),,52.4361910,13.2735060,,,0,
9049203,,Bolchener Str. (Berlin),,52.4338660,13.2757480,,,0,
9049205,,Schönower Park (Berlin),,52.4269310,13.2603460,,,0,
9049206,,Jänickestr. (Berlin),,52.4272320,13.2717190,,,0,
9049207,,Stubenrauchstr. (Berlin),,52.4306100,13.2659940,,,0,
9049208,,Dahlemer Weg (Berlin),,52.4321450,13.2786390,,,0,
9049241,,Zehlendorf Eiche (Berlin),,52.4350820,13.2604610,,,0,
9049251,,Machnower Str./Berlepschstr. (Berlin),,52.4297090,13.2568960,,,0,
9049252,,Schrockstr. (Berlin),,52.4276540,13.2549120,,,0,
9049253,,Machnower Str. (Berlin),,52.4304360,13.2594900,,,0,
9049254,,Schweizerhofpark (Berlin),,52.4249900,13.2620100,,,0,
9049256,,Knesebeckstr. (Berlin),,52.4289020,13.2676940,,,0,
9049257,,Mürwiker Str. (Berlin),,52.4263860,13.2768550,,,0,
9049258,,Rathaus Zehlendorf (Berlin),,52.4334800,13.2581360,,,0,
9049271,,Zehlendorf Eiche (Berlin),,52.4345180,13.2602240,,,0,
9049301,,Beeskowdamm (Berlin),,52.4096550,13.2673040,,,0,
9049302,,Sachtlebenstr. (Berlin),,52.4091830,13.2517420,,,0,
9049303,,Am Birkenknick (Berlin),,52.4151770,13.2661540,,,0,
9049304,,Ludwigsfelder Str./Sachtlebenstr. (Berlin),,52.4193300,13.2491190,,,0,
9049305,,Leo-Baeck-Str. (Berlin),,52.4220680,13.2637790,,,0,
9049351,,Gutzmannstr. (Berlin),,52.4209570,13.2499730,,,0,
9049352,,Nieritzweg (Berlin),,52.4152990,13.2513120,,,0,
9049353,,Windsteiner Weg (Berlin),,52.4117080,13.2517840,,,0,
9049354,,Laehrstr. (Berlin),,52.4193880,13.2647900,,,0,
9049356,,Am Rehwechsel (Berlin),,52.4121130,13.2669330,,,0,
9049372,,Andréezeile (Berlin),,52.4103420,13.2661180,,,0,
9049374,,Alt-Schönow (Berlin),,52.4070260,13.2677430,,,0,
9050201,,U Krumme Lanke (Berlin),,52.4426190,13.2403650,,,0,
9050202,,Onkel-Tom-Str. (Berlin),,52.4500280,13.2510910,,,0,
9050203,,Scharfestr. (Berlin),,52.4382790,13.2623170,,,0,
9050206,,Altkanzlerstr. (Berlin),,52.4466700,13.2448620,,,0,
9050251,,Holländische Mühle (Berlin),,52.4400020,13.2767490,,,0,
9050253,,Kleinaustr. (Berlin),,52.4353630,13.2643650,,,0,
9050254,,Leichhardtstr. (Berlin),,52.4450620,13.2675850,,,0,
9050255,,Schützallee (Berlin),,52.4421910,13.2654580,,,0,
9050256,,Schützallee/Riemeisterstr. (Berlin),,52.4417280,13.2616950,,,0,
9050257,,Sophie-Charlotte-Str. (Berlin),,52.4445070,13.2606560,,,0,
9050258,,Am Fischtal (Berlin),,52.4465090,13.2583600,,,0,
9050259,,Im Gestell (Berlin),,52.4482380,13.2563500,,,0,
9050261,,Siebenendenweg (Berlin),,52.4483310,13.2475270,,,0,
9050281,,Winfriedstr. (Berlin),,52.4378800,13.2702020,,,0,
9050282,,U Onkel Toms Hütte (Berlin),,52.4501500,13.2540220,,,0,
9050301,,S Mexikoplatz (Berlin),,52.4371690,13.2320650,,,0,
9050302,,Potsdamer Chaussee/Lindenthaler Allee (Berlin),,52.4310810,13.2298370,,,0,
9050303,,Plüschowstr. (Berlin),,52.4373170,13.2522160,,,0,
9050304,,Sven-Hedin-Platz (Berlin),,52.4404520,13.2447310,,,0,
9050351,,Forststr. (Berlin),,52.4401180,13.2363100,,,0,
9050352,,Niklasstr. (Berlin),,52.4338410,13.2297670,,,0,
9050355,,S Schlachtensee (Berlin),,52.4398100,13.2139920,,,0,
9050357,,Hartmannsweilerweg (Berlin),,52.4386730,13.2489310,,,0,
9050381,,Busseallee (Berlin),,52.4357310,13.2500680,,,0,
9050391,,Fischerhüttenstr. (Berlin),,52.4359210,13.2558530,,,0,
9051101,,Pücklerstr. (Berlin),,52.4685820,13.2784150,,,0,
9051151,,Messelstr. (Berlin),,52.4733890,13.2785540,,,0,
9051201,,U Thielplatz (Berlin),,52.4510040,13.2816560,,,0,
9051202,,U Breitenbachplatz (Berlin),,52.4673450,13.3092810,,,0,
9051203,,Am Waldfriedhof (Berlin),,52.4550280,13.2660180,,,0,
9051204,,Königin-Luise-Str./Clayallee (Berlin),,52.4600920,13.2747700,,,0,
9051205,,Domäne Dahlem (Berlin),,52.4587810,13.2871050,,,0,
9051206,,Vogelsang (Berlin),,52.4594720,13.2797840,,,0,
9051251,,Löhleinstr. (Berlin),,52.4536220,13.2854840,,,0,
9051252,,Im Dol (Berlin),,52.4654700,13.2885950,,,0,
9051253,,Drosselweg (Berlin),,52.4612130,13.2875000,,,0,
9051254,,Bachstelzenweg (Berlin),,52.4586350,13.2840110,,,0,
9051255,,Alliiertenmuseum (Berlin),,52.4564820,13.2736650,,,0,
9051256,,Hüttenweg (Berlin),,52.4535230,13.2722410,,,0,
9051257,,Am Hegewinkel (Berlin),,52.4536460,13.2632710,,,0,
9051258,,Waltraudstr. (Berlin),,52.4514890,13.2633120,,,0,
9051259,,Finkenstr. (Berlin),,52.4647380,13.2773030,,,0,
9051281,,Dillenburger Str. (Berlin),,52.4696140,13.3048600,,,0,
9051301,,U Oskar-Helene-Heim (Berlin),,52.4504220,13.2689160,,,0,
9051302,,U Podbielskiallee (Berlin),,52.4641750,13.2952080,,,0,
9051303,,U Dahlem-Dorf (Berlin),,52.4576980,13.2900160,,,0,
9051307,,Königin-Luise-Platz/Botanischer Garten (Berlin),,52.4585990,13.3037250,,,0,
9051309,,Von-Laue-Str. (Berlin),,52.4438800,13.2888330,,,0,
9051310,,Clayallee 229 (Berlin),,52.4484220,13.2693580,,,0,
9051311,,Hittorfstr. (Berlin),,52.4508310,13.2876680,,,0,
9051312,,Limonenstr. (Berlin),,52.4539340,13.2988650,,,0,
9051313,,Altensteinstr./Fabeckstr. (Berlin),,52.4510470,13.2958530,,,0,
9051315,,Reichensteiner Weg (Berlin),,52.4485040,13.2941750,,,0,
9051351,,Schorlemerallee (Berlin),,52.4660150,13.3068280,,,0,
9051352,,Rohlfsstr. (Berlin),,52.4615660,13.3044450,,,0,
9051353,,Arnimallee (Berlin),,52.4578470,13.2993630,,,0,
9051354,,Museen Dahlem (Berlin),,52.4579660,13.2950700,,,0,
9051355,,Ehrenbergstr. (Berlin),,52.4483160,13.2907710,,,0,
9051358,,Bitscher Str. (Berlin),,52.4504300,13.2773890,,,0,
9051371,,U Oskar-Helene-Heim (Berlin) [Bus Clayallee],,52.4503880,13.2704150,,,0,
9051372,,U Oskar-Helene-Heim (Bln) [Bus Argentinische A],,52.4510940,13.2690970,,,0,
9052101,,Wannseebadweg (Berlin),,52.4333890,13.1887300,,,0,
9052151,,Wasserwerk Beelitzhof (Berlin),,52.4300380,13.1850670,,,0,
9052152,,Am Sandwerder (Berlin),,52.4272690,13.1860370,,,0,
9052153,,Tillmannsweg (Berlin),,52.4237330,13.1837660,,,0,
9052154,,Großes Fenster (Berlin),,52.4510770,13.1931200,,,0,
9052155,,Kronprinzessinnenweg/Havelchaussee (Berlin),,52.4431680,13.1992890,,,0,
9052156,,Badeweg (Berlin),,52.4320010,13.1864730,,,0,
9052191,,Strandbad Wannsee (Berlin),,52.4382340,13.1806260,,,0,
9052201,,S Nikolassee (Berlin),,52.4312130,13.1933030,,,0,
9052202,,Quantzstr. (Berlin),,52.4237120,13.2036120,,,0,
9052203,,An der Rehwiese (Berlin),,52.4341220,13.1998370,,,0,
9052204,,Prinz-Friedrich-Leopold-Str. (Berlin),,52.4278340,13.1959320,,,0,
9052205,,Isoldestr. (Berlin),,52.4191700,13.1889210,,,0,
9052251,,Nibelungenstr. (Berlin),,52.4187200,13.1808980,,,0,
9052253,,Lückhoffstr. (Berlin),,52.4340160,13.2066860,,,0,
9052271,,Waldhaus-Klinik (Berlin),,52.4245870,13.2059880,,,0,
9052273,,Teutonenstr. (Berlin),,52.4285860,13.1935700,,,0,
9052302,,Spanische Allee/Potsdamer Chaussee (Berlin),,52.4291700,13.2243150,,,0,
9052303,,Schopenhauerstr. (Berlin),,52.4339690,13.2112430,,,0,
9052304,,Clauertstr. (Berlin),,52.4274250,13.2296620,,,0,
9052305,,Kurstr. (Berlin),,52.4281100,13.2181840,,,0,
9052351,,Am Rohrgarten (Berlin),,52.4264350,13.2272080,,,0,
9052352,,Wasgensteig (Berlin),,52.4274180,13.2147680,,,0,
9052353,,Waldfriedhof Zehlendorf (Berlin),,52.4261160,13.2093520,,,0,
9052355,,Krankenhaus Hubertus (Berlin),,52.4324130,13.2184490,,,0,
9052356,,Lloyd-G.-Wells-Str. (Berlin),,52.4237180,13.2257950,,,0,
9053101,,Glienicker Lake (Berlin),,52.4134840,13.0926920,,,0,
9053102,,Pfaueninsel (Berlin),,52.4283660,13.1234640,,,0,
9053151,,Friedenstr. (Berlin),,52.4172540,13.1389090,,,0,
9053152,,Schäferberg (Berlin),,52.4155300,13.1255780,,,0,
9053153,,Nikolskoer Weg (Berlin),,52.4140850,13.1092560,,,0,
9053154,,Schuchardtweg (Berlin),,52.4179450,13.1445270,,,0,
9053155,,Rübezahlweg (Berlin),,52.4255910,13.1326850,,,0,
9053171,,Schloss Glienicke (Berlin),,52.4132240,13.0964770,,,0,
9053202,,Am Kleinen Wannsee (Berlin),,52.4204830,13.1671860,,,0,
9053204,,Rathaus Wannsee (Berlin),,52.4184060,13.1489050,,,0,
9053205,,Wilhelmplatz (Berlin),,52.4127540,13.1423640,,,0,
9053206,,Hahn-Meitner-Platz (Berlin),,52.4115550,13.1333240,,,0,
9053250,,Straße zum Löwen (Berlin),,52.4274230,13.1596660,,,0,
9053251,,Seglerweg (Berlin),,52.4238660,13.1612780,,,0,
9053252,,Koblanckstr. (Berlin),,52.4266490,13.1616450,,,0,
9053253,,Liebermann-Villa (Berlin),,52.4288760,13.1636150,,,0,
9053254,,Am Großen Wannsee (Berlin),,52.4315570,13.1651560,,,0,
9053255,,Haus der Wannsee-Konferenz (Berlin),,52.4328310,13.1635720,,,0,
9053256,,Zum Heckeshorn (Berlin),,52.4301610,13.1608550,,,0,
9053257,,Wernerstr. (Berlin),,52.4195650,13.1599890,,,0,
9053258,,Pfaueninselchaussee/Königstr. (Berlin),,52.4189950,13.1539470,,,0,
9053259,,Charlottenstr./Chausseestr. (Berlin),,52.4154810,13.1456240,,,0,
9053260,,Conradstr. (Berlin),,52.4202680,13.1616240,,,0,
9053271,,Am Birkenhügel (Berlin),,52.4116740,13.1369130,,,0,
9053275,,Wilhelmplatz (Berlin),,52.4124830,13.1406230,,,0,
9053291,,Wannseebrücke (Berlin),,52.4200410,13.1754360,,,0,
9053301,,S Wannsee Bhf (Berlin),,52.4214610,13.1791040,,,0,
9053303,,Steinstücken (Berlin),,52.3891200,13.1299140,,,0,
9053304,,Kätchenweg (Berlin),,52.3976340,13.1435750,,,0,
9053352,,Hubertusbrücke (Berlin),,52.4051650,13.1435940,,,0,
9053353,,Neue Kreisstr. (Berlin),,52.3996560,13.1417320,,,0,
9053354,,Königsweg (Berlin),,52.3964770,13.1405770,,,0,
9053355,,Stölpchensee (Berlin),,52.4093880,13.1437030,,,0,
9053371,,Stahnsdorfer Brücke (Berlin),,52.3915580,13.1315630,,,0,
9054101,,U Rathaus Schöneberg (Berlin),,52.4833350,13.3419950,,,0,
9054102,,U Kleistpark (Berlin),,52.4908480,13.3609220,,,0,
9054103,,U Eisenacher Str. (Berlin),,52.4895320,13.3502810,,,0,
9054104,,S Schöneberg (Berlin),,52.4798140,13.3528540,,,0,
9054105,,S+U Innsbrucker Platz (Berlin),,52.4781040,13.3428810,,,0,
9054106,,Rathaus Schöneberg (Berlin),,52.4851520,13.3450830,,,0,
9054107,,Dominicusstr./Hauptstr. (Berlin),,52.4817980,13.3483810,,,0,
9054109,,Kaiser-Wilhelm-Platz (Berlin),,52.4869460,13.3571650,,,0,
9054151,,Albertstr. (Berlin),,52.4845130,13.3529830,,,0,
9054153,,Goebenstr. (Berlin),,52.4943340,13.3610590,,,0,
9054173,,Hauptstr./Martin-Luther-Str. (Berlin),,52.4798660,13.3459520,,,0,
9054192,,Grunewaldstr. (Berlin),,52.4890890,13.3450110,,,0,
9055101,,U Viktoria-Luise-Platz (Berlin),,52.4961730,13.3432690,,,0,
9055102,,U Bayerischer Platz (Berlin),,52.4886580,13.3402430,,,0,
9055105,,Hohenstaufenstr. (Berlin),,52.4944320,13.3461610,,,0,
9055106,,Eisenacher Str./Hohenstaufenstr. (Berlin),,52.4945870,13.3491840,,,0,
9055107,,Münchener Str. (Berlin),,52.4942930,13.3426230,,,0,
9055108,,Bamberger Str. (Berlin),,52.4947200,13.3365990,,,0,
9055151,,Barbarossastr. (Berlin),,52.4918640,13.3451700,,,0,
9055152,,Motzstr. (Berlin),,52.4974850,13.3464020,,,0,
9056101,,U Wittenbergplatz (Berlin),,52.5021120,13.3425670,,,0,
9056102,,U Nollendorfplatz (Berlin),,52.4996470,13.3538310,,,0,
9056104,,U Bülowstr. (Berlin),,52.4976610,13.3624580,,,0,
9056105,,An der Urania (Berlin),,52.5010750,13.3468060,,,0,
9056152,,Winterfeldtplatz (Berlin),,52.4946110,13.3557080,,,0,
9057101,,S Yorckstr. S1 (Berlin),,52.4930370,13.3690440,,,0,
9057102,,S+U Yorckstr. S1 U7 (Berlin),,52.4923480,13.3679920,,,0,
9057103,,S+U Yorckstr. (Berlin),,52.4927690,13.3704340,,,0,
9057104,,S Julius-Leber-Brücke (Berlin),,52.4862660,13.3607810,,,0,
9057106,,Torgauer Str. (Berlin),,52.4794480,13.3612620,,,0,
9057107,,Dennewitzplatz (Berlin),,52.4959100,13.3662320,,,0,
9057150,,Hohenfriedbergstr. (Berlin),,52.4850510,13.3648210,,,0,
9057151,,Kesselsdorfstr. (Berlin),,52.4850840,13.3682080,,,0,
9057153,,Gustav-Müller-Platz (Berlin),,52.4835530,13.3614480,,,0,
9057154,,Leuthener Str. (Berlin),,52.4814050,13.3615140,,,0,
9057155,,Katzbachstr. (Berlin),,52.4918180,13.3780320,,,0,
9057171,,Mansteinstr. (Berlin),,52.4933470,13.3671390,,,0,
9058100,,S Südkreuz Bhf/Ostseite (Berlin),,52.4745090,13.3671880,,,0,
9058101,,S Südkreuz Bhf (Berlin),,52.4754710,13.3655840,,,0,
9058102,,S Priesterweg (Berlin),,52.4592420,13.3560330,,,0,
9058103,,S+U Yorckstr. S2 S25 U7 (Berlin),,52.4923260,13.3722320,,,0,
9058104,,Schöneberger Str. (Berlin),,52.4697250,13.3720730,,,0,
9058105,,Lindenhof (Berlin),,52.4599510,13.3616310,,,0,
9058106,,Röblingstr./Arnulfstr. (Berlin),,52.4565780,13.3594530,,,0,
9058107,,Alboinplatz (Berlin),,52.4612580,13.3698080,,,0,
9058108,,S Yorckstr. S2 S25 (Berlin),,52.4926110,13.3716810,,,0,
9058109,,Reichartstr. (Berlin),,52.4726130,13.3671290,,,0,
9058151,,Alboinstr./Arnulfstr. (Berlin),,52.4557480,13.3698720,,,0,
9058152,,Domnauer Str. (Berlin),,52.4558650,13.3644480,,,0,
9058153,,Friedhof Röblingstr. (Berlin),,52.4534960,13.3609610,,,0,
9058155,,Eresburgstr. (Berlin),,52.4668070,13.3702750,,,0,
9058156,,Egelingzeile (Berlin),,52.4635750,13.3699830,,,0,
9058157,,Kolonnenbrücke (Berlin),,52.4850560,13.3729770,,,0,
9058171,,Bessemerstr. (Berlin),,52.4597330,13.3665090,,,0,
9058172,,Suttnerstr. (Berlin),,52.4598040,13.3642310,,,0,
9059101,,Sachsendamm/Gotenstr. (Berlin),,52.4756210,13.3595840,,,0,
9059151,,Sportzentrum Schöneberg (Berlin),,52.4773280,13.3565310,,,0,
9060101,,S Friedenau (Berlin),,52.4700050,13.3406030,,,0,
9060102,,Friedenauer Brücke (Berlin),,52.4673970,13.3368010,,,0,
9060103,,Grazer Platz/Beckerstr. (Berlin),,52.4667710,13.3444340,,,0,
9060104,,Insulaner (Berlin),,52.4590860,13.3484660,,,0,
9060105,,Auguste-Viktoria-Klinikum Süd (Berlin),,52.4603330,13.3463120,,,0,
9060106,,Grazer Platz (Berlin),,52.4669430,13.3475000,,,0,
9060107,,Ceciliengärten (Berlin),,52.4750280,13.3430810,,,0,
9060151,,Brüggemannstr. (Berlin),,52.4634850,13.3480860,,,0,
9060152,,Altmarkstr. (Berlin),,52.4588130,13.3424400,,,0,
9060153,,Rubensstr./S Friedenau (Berlin),,52.4697880,13.3438780,,,0,
9060154,,Auguste-Viktoria-Klinikum (Berlin),,52.4632090,13.3446930,,,0,
9060155,,Planetarium (Berlin),,52.4574910,13.3488440,,,0,
9061101,,U Walther-Schreiber-Platz (Berlin),,52.4650020,13.3284140,,,0,
9061102,,U Friedrich-Wilhelm-Platz (Berlin),,52.4714430,13.3286820,,,0,
9061104,,Kaisereiche (Berlin),,52.4689300,13.3323440,,,0,
9061105,,Breslauer Platz (Berlin),,52.4722050,13.3360340,,,0,
9061153,,Hähnelstr. (Berlin),,52.4755370,13.3402120,,,0,
9061154,,Schillerplatz (Berlin),,52.4715570,13.3240940,,,0,
9061702,,U Friedrich-Wilhelm-Pl (Bln) [Bus Schmiljanstr.],,52.4708300,13.3296490,,,0,
9062101,,Gritznerstr. (Berlin),,52.4643260,13.3165050,,,0,
9062151,,Paulsenstr. (Berlin),,52.4652610,13.3140600,,,0,
9062152,,Lepsiusstr. (Berlin),,52.4631850,13.3197520,,,0,
9062202,,S+U Rathaus Steglitz (Berlin),,52.4550690,13.3221570,,,0,
9062203,,U Schloßstr. (Berlin),,52.4611860,13.3248420,,,0,
9062206,,Schmidt-Ott-Str. (Berlin),,52.4598900,13.3088830,,,0,
9062251,,Grunewaldstr./Lepsiusstr. (Berlin),,52.4587910,13.3156190,,,0,
9062252,,Kieler Str. (Berlin),,52.4587320,13.3225020,,,0,
9062281,,S Rathaus Steglitz (Berlin),,52.4559640,13.3224780,,,0,
9062282,,S+U Rathaus Steglitz/Kreisel (Berlin),,52.4558930,13.3208580,,,0,
9062781,,S+U Rathaus Steglitz (Berlin) [U9],,52.4564420,13.3199910,,,0,
9062782,,S+U Rathaus Steglitz (Berlin) [Bus Schloßstr.],,52.4567580,13.3205890,,,0,
9062784,,S+U Rathaus Steglitz (Berlin) [Bus Albrechtstr.],,52.4566830,13.3216910,,,0,
9063100,,Filandastr. (Berlin),,52.4581980,13.3316670,,,0,
9063101,,S Feuerbachstr. (Berlin),,52.4635820,13.3324180,,,0,
9063103,,Knausplatz (Berlin),,52.4644610,13.3389480,,,0,
9063104,,Bismarckstr./Bergstr. (Berlin),,52.4585530,13.3391810,,,0,
9063151,,Lauenburger Platz (Berlin),,52.4617960,13.3393240,,,0,
9063152,,Selerweg (Berlin),,52.4544770,13.3388810,,,0,
9063154,,Cranachstr. (Berlin),,52.4627310,13.3432510,,,0,
9063201,,Neue Filandastr. (Berlin),,52.4527990,13.3322390,,,0,
9063202,,Birkbuschstr./Klingsorstr. (Berlin),,52.4475270,13.3263580,,,0,
9063203,,Carmerplatz (Berlin),,52.4523580,13.3203250,,,0,
9063252,,Haydnstr. (Berlin),,52.4495150,13.3237560,,,0,
9063253,,Amfortasweg (Berlin),,52.4457410,13.3244810,,,0,
9063254,,Vionvillestr. (Berlin),,52.4456470,13.3297000,,,0,
9063290,,Robert-Lück-Str. (Berlin),,52.4580620,13.3277930,,,0,
9063291,,Breite Str. (Berlin),,52.4540930,13.3290420,,,0,
9063292,,Heesestr. (Berlin),,52.4550830,13.3265120,,,0,
9063301,,Steglitzer Damm/Bismarckstr. (Berlin),,52.4510240,13.3382170,,,0,
9063302,,Kottesteig (Berlin),,52.4540700,13.3485480,,,0,
9063351,,Stindestr. (Berlin),,52.4482160,13.3401910,,,0,
9063401,,Steglitzer Damm/Halskestr. (Berlin),,52.4500930,13.3466170,,,0,
9063402,,Siemensstr./Halskestr. (Berlin),,52.4471070,13.3428050,,,0,
9063451,,Liebenowzeile (Berlin),,52.4496310,13.3500890,,,0,
9063452,,S Südende (Berlin),,52.4489020,13.3540830,,,0,
9063453,,Hünefeldzeile (Berlin),,52.4486510,13.3571200,,,0,
9064101,,Ostpreußendamm/Königsberger Str. (Berlin),,52.4307840,13.3175040,,,0,
9064102,,Bogenstr. (Berlin),,52.4256440,13.3165860,,,0,
9064103,,Boothstr. (Berlin),,52.4360370,13.3218660,,,0,
9064104,,Herwarthstr. (Berlin),,52.4320890,13.3180870,,,0,
9064151,,Promenadenstr. (Berlin),,52.4340900,13.3200290,,,0,
9064152,,Giesensdorfer Str. (Berlin),,52.4239790,13.3143460,,,0,
9064153,,Hochbergweg (Berlin),,52.4266050,13.3199080,,,0,
9064200,,Blanckertzweg (Berlin),,52.4189560,13.3191500,,,0,
9064201,,S Lichterfelde Süd (Berlin),,52.4099590,13.3086680,,,0,
9064202,,Lippstädter Str. (Berlin),,52.4127760,13.3026670,,,0,
9064204,,Mercatorweg (Berlin),,52.4119220,13.3204390,,,0,
9064205,,Celsiusstr. Nord (Berlin),,52.4162150,13.3159380,,,0,
9064206,,Ostpreußendamm/Osdorfer Str. (Berlin),,52.4209520,13.3101550,,,0,
9064207,,Ostpreußendamm Süd (Berlin),,52.4143630,13.3021400,,,0,
9064208,,Schwatlostr. (Berlin),,52.4204240,13.3116240,,,0,
9064251,,Woltmannweg (Berlin),,52.4139780,13.3182670,,,0,
9064253,,Schwelmer Str. (Berlin),,52.4121590,13.2990620,,,0,
9064256,,S Osdorfer Str. (Berlin),,52.4183770,13.3138710,,,0,
9064257,,Feldstr. (Berlin),,52.4156960,13.3035460,,,0,
9064258,,Ahlener Weg (Berlin),,52.4105200,13.3050690,,,0,
9064271,,Lindenstr. (Berlin),,52.4177170,13.3060900,,,0,
9064272,,Landweg (Berlin),,52.4104370,13.3230700,,,0,
9064273,,Celsiusstr. Süd (Berlin),,52.4109770,13.3141360,,,0,
9064277,,S Lichterfelde Süd (Berlin) [Bus Fürstenstr.],,52.4111020,13.3085690,,,0,
9064278,,S Lichterfelde Süd (Berlin) [Bus Réaumurstr.],,52.4109890,13.3114020,,,0,
9064301,,S Lichterfelde Ost Bhf (Berlin),,52.4291010,13.3280840,,,0,
9064302,,Sondershauser Str. (Berlin),,52.4159520,13.3417250,,,0,
9064303,,Oberhofer Platz (Berlin),,52.4246240,13.3282730,,,0,
9064306,,Amalienstr. (Berlin),,52.4299760,13.3334470,,,0,
9064307,,Saaleckplatz (Berlin),,52.4162180,13.3244630,,,0,
9064308,,Schütte-Lanz-Str./Lichterfelder Ring (Berlin),,52.4109570,13.3296110,,,0,
9064309,,Lange Str. (Berlin),,52.4240110,13.3331790,,,0,
9064321,,Sarntaler Weg (Berlin),,52.4110820,13.3336270,,,0,
9064322,,Jenbacher Weg,,52.4117040,13.3421700,,,0,
9064350,,Oberhofer Weg (Berlin),,52.4176250,13.3328390,,,0,
9064351,,Marienstr. (Berlin),,52.4292760,13.3221200,,,0,
9064352,,Jungfernstieg (Berlin),,52.4280480,13.3250530,,,0,
9064353,,Grabenstr. (Berlin),,52.4212640,13.3264960,,,0,
9064354,,Heinersdorfer Str./Hildburghauser Str. (Berlin),,52.4185790,13.3247250,,,0,
9064355,,Lilienthalpark (Berlin),,52.4142740,13.3263450,,,0,
9064356,,Jägerstr. (Berlin),,52.4265380,13.3314320,,,0,
9064357,,Geraer Str. (Berlin),,52.4209890,13.3349550,,,0,
9064358,,Georgenstr. (Berlin),,52.4187140,13.3366940,,,0,
9064359,,Stanzer Zeile (Berlin),,52.4166480,13.3381900,,,0,
9064360,,Stadtilmer Weg (Berlin),,52.4149800,13.3465320,,,0,
9064361,,Kranoldplatz (Berlin),,52.4271120,13.3267300,,,0,
9064771,,Lindenstr. (Berlin) [Busendstelle],,52.4177170,13.3060900,,,0,
9065103,,Wupperstr. (Berlin),,52.4095550,13.2724890,,,0,
9065151,,Alsterweg (Berlin),,52.4128980,13.2766270,,,0,
9065152,,Persantestr. (Berlin),,52.4149200,13.2799630,,,0,
9066101,,S Lichterfelde West (Berlin),,52.4435160,13.2941460,,,0,
9066102,,S Botanischer Garten (Berlin),,52.4475550,13.3060460,,,0,
9066103,,Unter den Eichen/Drakestr. (Berlin),,52.4458790,13.2933920,,,0,
9066104,,Thielallee/Dahlemer Weg (Berlin),,52.4416800,13.2820330,,,0,
9066105,,Unter den Eichen/Botanischer Garten (Berlin),,52.4516700,13.3102580,,,0,
9066106,,Fabeckstr. (Berlin),,52.4480690,13.3001780,,,0,
9066150,,Drakestr./Gardeschützenweg (Berlin),,52.4423480,13.2973770,,,0,
9066151,,Asternplatz (Berlin),,52.4494480,13.3039250,,,0,
9066152,,Schlossparktheater (Berlin),,52.4540810,13.3188910,,,0,
9066153,,Lipaer Str. (Berlin),,52.4481220,13.3109020,,,0,
9066154,,Tietzenweg (Berlin),,52.4447240,13.3019910,,,0,
9066171,,S Lichterfelde West (Berlin) [Bus],,52.4431200,13.2966640,,,0,
9066181,,Braillestr. (Berlin),,52.4534330,13.3157820,,,0,
9066201,,Carstennstr./Ringstr. (Berlin),,52.4327190,13.2870810,,,0,
9066202,,Luzerner Str. (Berlin),,52.4240450,13.2928990,,,0,
9066203,,Pinnauweg (Berlin),,52.4210910,13.2811410,,,0,
9066204,,Darser Str. (Berlin),,52.4169220,13.2835040,,,0,
9066205,,Hochbaumstr. (Berlin),,52.4299040,13.2889100,,,0,
9066251,,Billy-Wilder-Promenade (Berlin),,52.4178000,13.2870870,,,0,
9066252,,Lichterfelder Weg (Berlin),,52.4199520,13.2948670,,,0,
9066253,,Platz des 4. Juli (Berlin),,52.4223860,13.2867790,,,0,
9066254,,Thuner Platz (Berlin),,52.4237030,13.2962410,,,0,
9066255,,Züricher Str. (Berlin),,52.4271060,13.2907690,,,0,
9066256,,Köhlerstr. (Berlin),,52.4352920,13.2892730,,,0,
9066257,,Johanneskirchplatz (Berlin),,52.4367870,13.2930810,,,0,
9066301,,Appenzeller Str. (Berlin),,52.4219170,13.2985110,,,0,
9066302,,Bundesarchiv (Berlin),,52.4324260,13.2998790,,,0,
9066303,,Holbeinstr. (Berlin),,52.4377270,13.3024760,,,0,
9066351,,Prettauer Pfad (Berlin),,52.4204280,13.3014370,,,0,
9066353,,Engadiner Weg (Berlin),,52.4254280,13.3028490,,,0,
9066354,,Bremer Str. (Berlin),,52.4289160,13.3068620,,,0,
9066355,,Berner Str. (Berlin),,52.4327280,13.2928150,,,0,
9066401,,Goerzallee/Drakestr. (Berlin),,52.4313740,13.3096850,,,0,
9066402,,Karwendelstr. (Berlin),,52.4330410,13.3067930,,,0,
9066404,,Händelplatz (Berlin),,52.4499230,13.3154280,,,0,
9066405,,Hindenburgdamm/Klingsorstr. (Berlin),,52.4434210,13.3157630,,,0,
9066407,,Drakestr./Ringstr. (Berlin),,52.4402190,13.2998000,,,0,
9066408,,Bäkestr. (Berlin),,52.4353960,13.3133330,,,0,
9066409,,Klingsorplatz/Klinikum (Berlin),,52.4439390,13.3209410,,,0,
9066410,,Charité - Campus Benjamin Franklin (Berlin),,52.4410270,13.3160890,,,0,
9066451,,Baseler Str. (Berlin),,52.4377590,13.2954040,,,0,
9066454,,Krahmerstr./Stockweg (Berlin),,52.4384960,13.3157780,,,0,
9066455,,Manteuffelstr. (Berlin),,52.4467600,13.3153190,,,0,
9067101,,Leonorenstr./Siemensstr. (Berlin),,52.4442570,13.3389970,,,0,
9067103,,Mozartstr. (Berlin),,52.4424910,13.3322080,,,0,
9067151,,Gärtnerstr. (Berlin),,52.4399240,13.3271450,,,0,
9067152,,Stadion Lichterfelde (Berlin),,52.4387060,13.3251380,,,0,
9067171,,Teltowkanalstr. (Berlin),,52.4435330,13.3314600,,,0,
9067200,,Kamenzer Damm/Wedellstr. (Berlin),,52.4341960,13.3590580,,,0,
9067201,,Lankwitz Kirche (Berlin),,52.4362620,13.3457540,,,0,
9067202,,Edenkobener Weg (Berlin),,52.4398760,13.3511590,,,0,
9067203,,Wunsiedeler Weg (Berlin),,52.4374920,13.3576890,,,0,
9067204,,Malteserstr./Kamenzer Damm (Berlin),,52.4332640,13.3532650,,,0,
9067205,,Kaiser-Wilhelm-Str./Seydlitzstr. (Berlin),,52.4321990,13.3386900,,,0,
9067206,,"Berlin, Melanchthonstr./Bruchwitzstr.",,52.4365530,13.3502190,,,0,
9067221,,S Lankwitz (Berlin),,52.4390370,13.3427650,,,0,
9067251,,Stadtbad Lankwitz (Berlin),,52.4414450,13.3420740,,,0,
9067252,,Kameradenweg (Berlin),,52.4340550,13.3462020,,,0,
9067253,,Havensteinstr. (Berlin),,52.4319330,13.3463280,,,0,
9067254,,Eiswaldtstr. (Berlin),,52.4285810,13.3470490,,,0,
9067255,,Paul-Schneider-Str. (Berlin),,52.4342540,13.3500750,,,0,
9067256,,Langkofelweg (Berlin),,52.4387140,13.3537260,,,0,
9067257,,Dillgesstr. (Berlin),,52.4342620,13.3422520,,,0,
9067258,,Bruchwitzstr. (Berlin),,52.4378950,13.3483480,,,0,
9067301,,Brotteroder Str. (Berlin),,52.4202270,13.3506460,,,0,
9067302,,St. Marien-Krankenhaus (Berlin),,52.4243120,13.3478450,,,0,
9067351,,Blankenhainer Str. (Berlin),,52.4220680,13.3492030,,,0,
9067352,,Maximilian-Kaller-Str. (Berlin),,52.4165880,13.3529450,,,0,
9067401,,Am Gemeindepark (Berlin),,52.4292230,13.3553460,,,0,
9067402,,Preysingstr. (Berlin),,52.4276340,13.3645750,,,0,
9067451,,Emmichstr. (Berlin),,52.4276610,13.3552400,,,0,
9067453,,Marchandstr. (Berlin),,52.4231960,13.3573960,,,0,
9067454,,Friedrichrodaer Str. (Berlin),,52.4204480,13.3587960,,,0,
9067455,,Vom Guten Hirten (Berlin),,52.4157230,13.3616640,,,0,
9067456,,Wedellstr. (Berlin),,52.4293660,13.3585710,,,0,
9067457,,Wichurastr. (Berlin),,52.4283680,13.3625240,,,0,
9067458,,Sonnenscheinpfad (Berlin),,52.4266610,13.3678970,,,0,
9068101,,U Paradestr. (Berlin),,52.4781460,13.3867300,,,0,
9068102,,Dudenstr./Katzbachstr. (Berlin),,52.4849400,13.3767860,,,0,
9068103,,Boelckestr./Hoeppnerstr. (Berlin),,52.4724520,13.3779120,,,0,
9068104,,Rumeyplan (Berlin),,52.4756020,13.3775540,,,0,
9068105,,Hoeppnerstr. (Berlin),,52.4727250,13.3737550,,,0,
9068106,,Bäumerplan (Berlin),,52.4760380,13.3755810,,,0,
9068151,,Gontermannstr. (Berlin),,52.4745320,13.3713540,,,0,
9068152,,Wüsthoffstr. (Berlin),,52.4788020,13.3767420,,,0,
9068153,,Badener Ring (Berlin),,52.4821100,13.3774480,,,0,
9068154,,Monumentenstr. (Berlin),,52.4876980,13.3768720,,,0,
9068156,,Bayernring (Berlin),,52.4825690,13.3812460,,,0,
9068157,,Schreiberring (Berlin),,52.4809100,13.3793690,,,0,
9068158,,Adolf-Scheidt-Platz (Berlin),,52.4781990,13.3783710,,,0,
9068201,,S+U Tempelhof (Berlin),,52.4706980,13.3857600,,,0,
9068202,,U Alt-Tempelhof (Berlin),,52.4659340,13.3858020,,,0,
9068203,,Berlinickeplatz (Berlin),,52.4663290,13.3781030,,,0,
9068204,,Albrechtstr./Manteuffelstr. (Berlin),,52.4610700,13.3767180,,,0,
9068205,,Oberlandstr./Germaniastr. (Berlin),,52.4636910,13.4006810,,,0,
9068251,,Felixstr. (Berlin),,52.4655160,13.3946030,,,0,
9068252,,Oberlandstr./BAB (Berlin),,52.4635200,13.4045450,,,0,
9068253,,Ringbahnstr. (Berlin),,52.4682810,13.3780020,,,0,
9068272,,U Tempelhof/Ringbahnstr. (Berlin),,52.4688090,13.3858480,,,0,
9068301,,S Attilastr. (Berlin),,52.4473020,13.3611820,,,0,
9068302,,U Kaiserin-Augusta-Str. (Berlin),,52.4605160,13.3849100,,,0,
9068304,,Röblingstr./Attilastr. (Berlin),,52.4496540,13.3668440,,,0,
9068341,,Attilaplatz (Berlin),,52.4558490,13.3758630,,,0,
9068342,,Tankredstr. (Berlin),,52.4549550,13.3747030,,,0,
9068343,,Wittekindstr. (Berlin),,52.4555130,13.3738960,,,0,
9068351,,Ringstr./Kurfürstenstr. (Berlin),,52.4455000,13.3685100,,,0,
9068352,,Gersdorfstr./Kurfürstenstr. (Berlin),,52.4472210,13.3712550,,,0,
9068353,,Friedrich-Wilhelm-Str. (Berlin),,52.4584350,13.3761350,,,0,
9068354,,Rathaus Tempelhof (Berlin),,52.4628480,13.3853220,,,0,
9068355,,Chlodwigstr. (Berlin),,52.4528130,13.3718410,,,0,
9068357,,Mergentheimer Str. (Berlin),,52.4447520,13.3554700,,,0,
9069101,,Columbiadamm/Friesenstr. (Berlin),,52.4841210,13.3944850,,,0,
9069151,,Golßener Str. (Berlin),,52.4837490,13.4001260,,,0,
9069201,,Tempelhofer Damm/Ordensmeisterstr. (Berlin),,52.4562060,13.3837890,,,0,
9069202,,Oberlandstr. Mitte (Berlin),,52.4640850,13.4099050,,,0,
9069203,,Komturstr. (Berlin),,52.4592480,13.4009810,,,0,
9069204,,Bergholzstr. (Berlin),,52.4600720,13.4170450,,,0,
9069205,,Industriestr. (Berlin),,52.4553220,13.4099340,,,0,
9069206,,Rohdestr. (Berlin),,52.4600440,13.4073330,,,0,
9069207,,Colditzstr./Ullsteinstr. (Berlin),,52.4531090,13.3965050,,,0,
9069208,,Eschersheimer Str. (Berlin),,52.4651960,13.4214770,,,0,
9069211,,Tempelhofer Damm/U Ullsteinstr. (Berlin),,52.4558790,13.3848530,,,0,
9069251,,Colditzstr. (Berlin),,52.4578350,13.3928000,,,0,
9069252,,Wenckebachstr. (Berlin),,52.4567050,13.3880130,,,0,
9069253,,Oberlandgarten (Berlin),,52.4646240,13.4152340,,,0,
9069254,,Bambachstr. (Berlin),,52.4657980,13.4267350,,,0,
9069257,,Saalburgstr. (Berlin),,52.4577990,13.4132050,,,0,
9069258,,Rixdorfer Str./Ullsteinstr. (Berlin),,52.4525150,13.4079460,,,0,
9069260,,Volkmarstr./Ullsteinstr. (Berlin),,52.4529960,13.3931480,,,0,
9069262,,Volkmarstr. (Berlin),,52.4546580,13.3954950,,,0,
9069271,,U Ullsteinstr. (Berlin),,52.4534540,13.3847770,,,0,
9070101,,U Westphalweg (Berlin),,52.4458050,13.3855670,,,0,
9070102,,Imbrosweg (Berlin),,52.4434940,13.3986430,,,0,
9070103,,Skutaristr. (Berlin),,52.4467790,13.4020710,,,0,
9070104,,Friedhof Mariendorf (Berlin),,52.4496560,13.4050160,,,0,
9070151,,Mariendorfer Damm/Eisenacher Str. (Berlin),,52.4480550,13.3853140,,,0,
9070152,,Kollostr. (Berlin),,52.4476410,13.3914340,,,0,
9070153,,Kosleckweg (Berlin),,52.4473030,13.3957630,,,0,
9070154,,Didostr. (Berlin),,52.4470900,13.3985510,,,0,
9070155,,Goldenes Horn Mitte (Berlin),,52.4421490,13.4044680,,,0,
9070156,,Am Hellespont (Berlin),,52.4446780,13.4071520,,,0,
9070157,,Lerchenweg (Berlin),,52.4479880,13.3871800,,,0,
9070158,,Gradestr. 91 (Berlin),,52.4522890,13.4230760,,,0,
9070159,,Gradestr. 71 (Berlin),,52.4523380,13.4286970,,,0,
9070181,,Dirschelweg (Berlin),,52.4449320,13.4001590,,,0,
9070201,,Gersdorfstr./Kaiserstr. (Berlin),,52.4450400,13.3740700,,,0,
9070202,,Dardanellenweg (Berlin),,52.4448510,13.4107760,,,0,
9070251,,Rathausstr./Kaiserstr. (Berlin),,52.4452740,13.3795050,,,0,
9070252,,Prühßstr. (Berlin),,52.4423780,13.3781490,,,0,
9070254,,Imbrosweg Ost (Berlin),,52.4421240,13.4095270,,,0,
9070301,,U Alt-Mariendorf (Berlin),,52.4396440,13.3874610,,,0,
9070302,,Rotkopfweg (Berlin),,52.4391060,13.4094600,,,0,
9070303,,Rixdorfer Str./Britzer Str. (Berlin),,52.4402860,13.3956000,,,0,
9070304,,Friedenstr./Großbeerenstr. (Berlin),,52.4378130,13.3803450,,,0,
9070305,,Hundsteinweg (Berlin),,52.4343650,13.3901040,,,0,
9070306,,Forddamm (Berlin),,52.4391260,13.3826360,,,0,
9070353,,Am Heidefriedhof (Berlin),,52.4402450,13.3921570,,,0,
9070355,,Goldenes Horn Süd (Berlin),,52.4395570,13.4039740,,,0,
9070381,,Ringstr./Rathausstr. (Berlin),,52.4410420,13.3809170,,,0,
9070401,,Tauernallee/Säntisstr. (Berlin),,52.4233990,13.3963300,,,0,
9070402,,Trabrennbahn (Berlin),,52.4315310,13.3918820,,,0,
9070403,,Sangerhauser Weg (Berlin),,52.4274050,13.4063370,,,0,
9070404,,Richard-Tauber-Damm/Säntisstr. (Berlin),,52.4199970,13.3906070,,,0,
9070405,,Ankogelweg (Berlin),,52.4195280,13.3983390,,,0,
9070451,,Pilatusweg (Berlin),,52.4293360,13.3927980,,,0,
9070452,,Glärnischweg (Berlin),,52.4263960,13.3944550,,,0,
9070453,,Sandsteinweg (Berlin),,52.4169860,13.3997730,,,0,
9070454,,Watzmannweg (Berlin),,52.4255340,13.4004410,,,0,
9070455,,Grünsteinweg (Berlin),,52.4263660,13.4091120,,,0,
9070456,,Tropfsteinweg (Berlin),,52.4235850,13.4146540,,,0,
9070457,,Asbestweg (Berlin),,52.4213320,13.4151840,,,0,
9070701,,U Alt-Mariendorf (Berlin) [Bus Alt-Mariendorf],,52.4402370,13.3875090,,,0,
9070702,,U Alt-Mariendorf (Berlin) [Bus Reißeckstr.],,52.4389690,13.3876170,,,0,
9071101,,Körtingstr. (Berlin),,52.4348270,13.3782960,,,0,
9071102,,Haynauer Str. (Berlin),,52.4351720,13.3655870,,,0,
9071104,,Wilhelm-von-Siemens-Str. (Berlin),,52.4292040,13.3756800,,,0,
9071151,,Döhlauer Pfad (Berlin),,52.4365820,13.3625720,,,0,
9071153,,Greinerstr. (Berlin),,52.4366870,13.3721040,,,0,
9071154,,Porschestr. (Berlin),,52.4372530,13.3760190,,,0,
9071171,,Halbauer Weg (Berlin),,52.4345930,13.3619960,,,0,
9072101,,S Buckower Chaussee (Berlin),,52.4109230,13.3826940,,,0,
9072102,,Nahmitzer Damm/Motzener Str. (Berlin),,52.4091740,13.3762320,,,0,
9072103,,Halker Zeile (Berlin),,52.4127670,13.3925110,,,0,
9072104,,Daimlerstr. (Berlin),,52.4219050,13.3849930,,,0,
9072105,,Titlisweg (Berlin),,52.4231940,13.3823870,,,0,
9072151,,Schwechtenstr. (Berlin),,52.4146200,13.3923050,,,0,
9072152,,Fritz-Werner-Str. (Berlin),,52.4238730,13.3804090,,,0,
9072181,,Großbeerenstr./Daimlerstr. (Berlin),,52.4258790,13.3756500,,,0,
9072191,,Culemeyerstr. (Berlin),,52.4167440,13.3928420,,,0,
9073101,,S Marienfelde (Berlin),,52.4238190,13.3750270,,,0,
9073181,,Belßstr./Marienfelder Allee (Berlin),,52.4251600,13.3725550,,,0,
9073201,,Weskammstr. (Berlin),,52.4143170,13.3502740,,,0,
9073203,,Stadtrandsiedlung (Berlin),,52.4028290,13.3535970,,,0,
9073205,,Nunsdorfer Ring Süd (Berlin),,52.4040290,13.3827140,,,0,
9073206,,Tirschenreuther Ring (Berlin),,52.4132620,13.3552980,,,0,
9073241,,Nahmitzer Damm/Marienfelder Allee (Berlin),,52.4119950,13.3631220,,,0,
9073243,,Friedenfelser Str. (Berlin),,52.4125700,13.3615380,,,0,
9073251,,Lichterfelder Ring/Waldsassener Str. (Berlin),,52.4115450,13.3498810,,,0,
9073253,,Ahrensdorfer Str. (Berlin),,52.4090730,13.3592990,,,0,
9073254,,Baußnernweg (Berlin),,52.4054570,13.3564540,,,0,
9073255,,Friedhof Marienfelde (Berlin),,52.4140990,13.3638480,,,0,
9073256,,Hanielweg (Berlin),,52.4175540,13.3666150,,,0,
9073257,,Erinnerungsstätte Marienfelde (Berlin),,52.4207220,13.3692710,,,0,
9073258,,Hranitzkystr. (Berlin),,52.4224310,13.3707060,,,0,
9073259,,Sperenberger Str. (Berlin),,52.4016040,13.3825790,,,0,
9073260,,Nunsdorfer Ring Nord (Berlin),,52.4065290,13.3795290,,,0,
9073273,,Stadtrandsiedlung (Berlin),,52.4022430,13.3522270,,,0,
9073281,,Waldsassener Str. (Berlin),,52.4082190,13.3506610,,,0,
9073305,,Nahmitzer Damm (Berlin),,52.4106990,13.3663890,,,0,
9074101,,Mariendorfer Damm/Buckower Chaussee (Berlin),,52.4145700,13.4011220,,,0,
9074103,,Goethestr./Potsdamer Str. (Berlin),,52.4050650,13.4061550,,,0,
9074104,,Kloster-Zinna-Str. (Berlin),,52.4030420,13.4129970,,,0,
9074105,,Grimmstr. (Berlin),,52.3985160,13.4066520,,,0,
9074150,,Warmensteinacher Str. (Berlin),,52.4136450,13.4258880,,,0,
9074151,,Kettinger Str. (Berlin),,52.4133630,13.3960280,,,0,
9074152,,Raabestr. (Berlin),,52.4103080,13.4035880,,,0,
9074153,,Am Rötepfuhl (Berlin),,52.4153180,13.4205470,,,0,
9074154,,Gerlinger Str. (Berlin),,52.4130810,13.4212100,,,0,
9074155,,Baldersheimer Weg (Berlin),,52.4120990,13.4191950,,,0,
9074156,,Rathenower Str./Töpchiner Weg (Berlin),,52.4101650,13.4178390,,,0,
9074157,,Seltersstr. (Berlin),,52.4076070,13.4160380,,,0,
9074158,,Kambergstr. (Berlin),,52.4051810,13.4144760,,,0,
9074159,,Homburgstr. (Berlin),,52.3998770,13.4108240,,,0,
9074171,,Finchleystr. (Berlin),,52.3937750,13.4047670,,,0,
9074201,,S Lichtenrade (Berlin),,52.3877090,13.3963640,,,0,
9074202,,S Schichauweg (Berlin),,52.3985660,13.3894630,,,0,
9074204,,Barnetstr./Steinstr. (Berlin),,52.3957080,13.3986580,,,0,
9074205,,Lichtenrader Damm/Barnetstr. (Berlin),,52.3937970,13.4067220,,,0,
9074206,,Im Domstift/Groß-Ziethener Str. (Berlin),,52.3943130,13.4123800,,,0,
9074207,,Nahariyastr. (Berlin),,52.3906430,13.4201810,,,0,
9074208,,Goltzstr./Lichtenrader Damm (Berlin),,52.3871180,13.4090950,,,0,
9074209,,Blohmstr./Illigstr. (Berlin),,52.3888170,13.3862780,,,0,
9074210,,Wolziger Zeile (Berlin),,52.3821410,13.3983320,,,0,
9074211,,Pechsteinstr. (Berlin),,52.3854320,13.4244640,,,0,
9074213,,Egestorffstr. (Berlin),,52.3979080,13.3820080,,,0,
9074214,,Rehagener Str. (Berlin),,52.3866660,13.4032640,,,0,
9074251,,Cecilienstr. (Berlin),,52.3886530,13.3887260,,,0,
9074252,,Simpsonweg (Berlin),,52.3981740,13.3930360,,,0,
9074253,,Taunusstr. (Berlin),,52.3946310,13.4166210,,,0,
9074254,,Rennsteig (Berlin),,52.3947670,13.4195490,,,0,
9074256,,Lichtenrader Damm 254 (Berlin),,52.3897150,13.4075910,,,0,
9074257,,Steinstr./Rhinstr. (Berlin),,52.3935140,13.3979570,,,0,
9074258,,John-Locke-Str. (Berlin),,52.3914730,13.4018000,,,0,
9074259,,Nürnberger Str. (Berlin),,52.3849380,13.4116990,,,0,
9074260,,Kolonie Märkische Heide (Berlin),,52.3804720,13.4153890,,,0,
9074261,,Hilbertstr. (Berlin),,52.3846440,13.3963700,,,0,
9074262,,Galluner Str. (Berlin),,52.3820400,13.4038070,,,0,
9074263,,Paplitzer Str. (Berlin),,52.3820430,13.4073320,,,0,
9074264,,Wittelsbacherstr./Augsburger Str. (Berlin),,52.3839130,13.4185100,,,0,
9074265,,Würzburger Str. (Berlin),,52.3882150,13.4247300,,,0,
9074266,,Tietjenstr. (Berlin),,52.3904580,13.4235390,,,0,
9074267,,Bornhagenweg (Berlin),,52.3906010,13.4124080,,,0,
9074268,,Maffeistr. Ost (Berlin),,52.3914090,13.3927930,,,0,
9074269,,Grenzweg Ost (Berlin),,52.3941670,13.3913810,,,0,
9074270,,Illigstr./Grenzweg (Berlin),,52.3942990,13.3862580,,,0,
9074271,,Illigstr./Maffeistr. (Berlin),,52.3910500,13.3858770,,,0,
9074272,,Skarbinastr. (Berlin),,52.3926330,13.4198630,,,0,
9074273,,Riedingerstr. (Berlin),,52.3876220,13.4014140,,,0,
9074274,,Illigstr./Schichauweg (Berlin),,52.3971940,13.3854090,,,0,
9074291,,Birkenhaag (Berlin),,52.3776950,13.4169160,,,0,
9074292,,Kirchhainer Damm/Horstwalder Str. (Berlin),,52.3828890,13.4132050,,,0,
9074293,,Wünsdorfer Str./Blohmstr. (Berlin),,52.3886770,13.3943080,,,0,
9074294,,Kirchhainer Damm/Stadtgrenze (Berlin),,52.3767580,13.4178700,,,0,
9074701,,S Lichtenrade (Berlin) [Bus Bahnhofstr.],,52.3866840,13.3979620,,,0,
9074702,,S Lichtenrade (Berlin) [Bus Prinzessinnenstr.],,52.3866950,13.3962430,,,0,
9075101,,Erkstr. (Berlin),,52.4816780,13.4400850,,,0,
9075102,,Harzer Str./Wildenbruchstr. (Berlin),,52.4863560,13.4463620,,,0,
9075103,,Sonnenallee/Pannierstr. (Berlin),,52.4861720,13.4304710,,,0,
9075104,,Fuldastr. (Berlin),,52.4838230,13.4359150,,,0,
9075151,,Wildenbruchplatz (Berlin),,52.4844370,13.4438110,,,0,
9075152,,Mengerzeile (Berlin),,52.4877080,13.4438590,,,0,
9075153,,Pflügerstr. (Berlin),,52.4898590,13.4339330,,,0,
9075154,,Lohmühlenplatz (Berlin),,52.4896040,13.4401970,,,0,
9075155,,Lohmühlenstr./Heidelberger Str. (Berlin),,52.4915080,13.4424820,,,0,
9076101,,Hertzbergplatz (Berlin),,52.4775030,13.4485740,,,0,
9076151,,Brockenstr. (Berlin),,52.4838140,13.4513570,,,0,
9076152,,Treptower Str./Harzer Str. (Berlin),,52.4824900,13.4538020,,,0,
9076153,,Geygerstr. (Berlin),,52.4798160,13.4439250,,,0,
9076155,,Werrastr. (Berlin),,52.4797820,13.4504000,,,0,
9076191,,Elsenstr. (Berlin),,52.4850300,13.4489100,,,0,
9077100,,Mittelbuschweg (Berlin),,52.4683460,13.4477580,,,0,
9077102,,Dammweg/Sonnenallee (Berlin),,52.4702830,13.4649220,,,0,
9077103,,Naumburger Str. (Berlin),,52.4659480,13.4469140,,,0,
9077104,,Steinbockstr. (Berlin),,52.4720050,13.4680550,,,0,
9077106,,S Sonnenallee (Berlin),,52.4738260,13.4560030,,,0,
9077107,,Grenzallee/Bergiusstr. (Berlin),,52.4656890,13.4562350,,,0,
9077108,,Nobelstr./Bergiusstr. (Berlin),,52.4606700,13.4631760,,,0,
9077110,,S Sonnenallee/Saalestr. (Berlin),,52.4722180,13.4544640,,,0,
9077149,,Jupiterstr. (Berlin),,52.4637650,13.4686790,,,0,
9077150,,Boschweg (Berlin),,52.4639100,13.4642540,,,0,
9077151,,Planetenstr. (Berlin),,52.4669790,13.4646210,,,0,
9077152,,Am Oberhafen (Berlin),,52.4650300,13.4506800,,,0,
9077153,,Ziegrastr. (Berlin),,52.4722380,13.4593950,,,0,
9077154,,Mareschstr. (Berlin),,52.4755120,13.4526000,,,0,
9077155,,S Köllnische Heide (Berlin),,52.4691720,13.4675340,,,0,
9077156,,Schulenburgpark (Berlin),,52.4665480,13.4703610,,,0,
9077157,,Haberstr. (Berlin),,52.4623660,13.4611430,,,0,
9077159,,Neuköllnische Brücke (Berlin),,52.4690550,13.4551690,,,0,
9077171,,Treptower Brücke (Berlin),,52.4814260,13.4525890,,,0,
9077201,,Peter-Anders-Str. (Berlin),,52.4633620,13.4750810,,,0,
9077202,,Neuköllnische Allee/Forsthausallee (Berlin),,52.4601740,13.4748560,,,0,
9077203,,Neuköllnische Allee (Berlin),,52.4681070,13.4606260,,,0,
9077204,,Chris-Gueffroy-Allee (Berlin),,52.4608090,13.4722000,,,0,
9077251,,Schmalenbachstr. (Berlin),,52.4605360,13.4681740,,,0,
9077271,,Michael-Bohnen-Ring (Berlin),,52.4648550,13.4728350,,,0,
9078101,,U Hermannplatz (Berlin),,52.4869600,13.4247260,,,0,
9078102,,U Rathaus Neukölln (Berlin),,52.4811490,13.4348120,,,0,
9078103,,U Karl-Marx-Str. (Berlin),,52.4764330,13.4398100,,,0,
9078104,,U Hermannplatz/Urbanstr. (Berlin),,52.4880310,13.4245830,,,0,
9078105,,U Hermannplatz/Sonnenallee (Berlin),,52.4875590,13.4264820,,,0,
9078106,,U Hermannplatz/Karl-Marx-Str. (Berlin),,52.4860730,13.4245050,,,0,
9078151,,Alfred-Scholz-Platz (Berlin),,52.4797910,13.4371230,,,0,
9078152,,Morusstr. (Berlin),,52.4783480,13.4323220,,,0,
9078154,,Hohenstaufenplatz (Berlin),,52.4910100,13.4235020,,,0,
9078155,,Jahnstr. (Berlin),,52.4896960,13.4206620,,,0,
9078157,,Reuterstr. (Berlin),,52.4842860,13.4288790,,,0,
9078158,,Weichselstr. (Berlin),,52.4831220,13.4314760,,,0,
9078170,,U Hermannplatz (Berlin) [Bus Ostseite],,52.4871080,13.4251280,,,0,
9078171,,U Hermannplatz (Berlin) [Bus Westseite],,52.4869820,13.4244320,,,0,
9078172,,Werbellinstr. (Berlin),,52.4786350,13.4360550,,,0,
9078201,,S+U Neukölln (Berlin),,52.4692850,13.4436980,,,0,
9078251,,Zeitzer Str. (Berlin),,52.4702330,13.4462890,,,0,
9078252,,Niemetzstr. (Berlin),,52.4711050,13.4521460,,,0,
9078253,,Karl-Marx-Platz (Berlin),,52.4740710,13.4404250,,,0,
9078271,,Lahnstr./U Neukölln (Berlin),,52.4676690,13.4421290,,,0,
9078272,,S+U Neukölln (Berlin) [U7],,52.4687680,13.4419150,,,0,
9078273,,S+U Neukölln (Berlin) [Bus],,52.4695750,13.4420880,,,0,
9079101,,Sommerbad Neukölln (Berlin),,52.4805860,13.4159520,,,0,
9079151,,Friedhöfe Columbiadamm (Berlin),,52.4822090,13.4079080,,,0,
9079152,,Fontanestr./Flughafenstr. (Berlin),,52.4802620,13.4211680,,,0,
9079201,,U Leinestr. (Berlin),,52.4728770,13.4284060,,,0,
9079202,,U Boddinstr. (Berlin),,52.4797480,13.4257880,,,0,
9079203,,Herrfurthstr. (Berlin),,52.4774760,13.4263770,,,0,
9079204,,Kranoldstr. (Berlin),,52.4657060,13.4343250,,,0,
9079205,,Hermannstr./Mariendorfer Weg (Berlin),,52.4650150,13.4327420,,,0,
9079206,,Mariendorfer Weg (Berlin),,52.4634500,13.4238920,,,0,
9079220,,S+U Hermannstr./Silbersteinstr. (Berlin),,52.4664350,13.4319640,,,0,
9079221,,S+U Hermannstr. (Berlin),,52.4671840,13.4317090,,,0,
9079251,,Eduard-Müller-Platz (Berlin),,52.4670050,13.4368540,,,0,
9079252,,Haus Bremen (Berlin),,52.4639730,13.4275140,,,0,
9079253,,Emser Str. (Berlin),,52.4690760,13.4358030,,,0,
9080101,,Gradestr./Tempelhofer Weg (Berlin),,52.4524460,13.4331140,,,0,
9080102,,Fulhamer Allee (Berlin),,52.4489740,13.4362810,,,0,
9080103,,Britzer Damm/Gradestr. (Berlin),,52.4526560,13.4387840,,,0,
9080104,,Germaniapromenade (Berlin),,52.4608890,13.4350510,,,0,
9080105,,Karl-Elsasser-Str. (Berlin),,52.4579190,13.4249350,,,0,
9080152,,Wilhelm-Borgmann-Brücke (Berlin),,52.4554730,13.4288130,,,0,
9080153,,Wussowstr. (Berlin),,52.4560900,13.4371900,,,0,
9080171,,Eintrachtsiedlung (Berlin),,52.4543360,13.4306450,,,0,
9080181,,Betriebshof Britz (Berlin),,52.4525640,13.4366780,,,0,
9080201,,U Blaschkoallee (Berlin),,52.4527470,13.4489820,,,0,
9080202,,U Grenzallee (Berlin),,52.4635200,13.4448330,,,0,
9080203,,Franz-Körner-Str. (Berlin),,52.4573690,13.4487660,,,0,
9080204,,U Grenzallee/Jahnstr. (Berlin),,52.4616580,13.4456700,,,0,
9080251,,Riesestr. (Berlin),,52.4523900,13.4450860,,,0,
9080301,,Windröschenweg (Berlin),,52.4399180,13.4159560,,,0,
9080351,,Im Rosengrund (Berlin),,52.4409370,13.4208420,,,0,
9080352,,Am Brandpfuhl (Berlin),,52.4418810,13.4253140,,,0,
9080353,,Neumarkplan (Berlin),,52.4427220,13.4294010,,,0,
9080401,,U Parchimer Allee (Berlin),,52.4453480,13.4499300,,,0,
9080402,,U Britz-Süd (Berlin),,52.4370800,13.4476730,,,0,
9080403,,Buschkrugallee/Parchimer Allee (Berlin),,52.4454400,13.4548750,,,0,
9080405,,Buschkrug (Berlin),,52.4525460,13.4521670,,,0,
9080406,,Britzer Damm/Mohriner Allee (Berlin),,52.4441090,13.4335790,,,0,
9080407,,Buckower Damm/Gutschmidtstr. (Berlin),,52.4404700,13.4350050,,,0,
9080408,,Paster-Behrens-Str. (Berlin),,52.4457330,13.4456480,,,0,
9080451,,Otto-Wels-Ring (Berlin),,52.4352850,13.4533050,,,0,
9080452,,Onkel-Herse-Str. (Berlin),,52.4482370,13.4539670,,,0,
9080453,,Wesenberger Ring (Berlin),,52.4383750,13.4402010,,,0,
9080454,,Jugendheim (Berlin),,52.4369320,13.4443450,,,0,
9080455,,Grüner Weg/Gutschmidtstr. (Berlin),,52.4370430,13.4513780,,,0,
9080456,,Rotkehlchenweg (Berlin),,52.4398050,13.4533370,,,0,
9080462,,Haarlemer Str. (Berlin),,52.4531160,13.4554960,,,0,
9080491,,Kielingerstr. (Berlin),,52.4449820,13.4591990,,,0,
9080601,,Zimmererweg (Berlin),,52.4355920,13.4355370,,,0,
9080602,,Tischlerzeile (Berlin),,52.4269740,13.4472830,,,0,
9080603,,Dachdeckerweg (Berlin),,52.4319970,13.4355670,,,0,
9080651,,Steinträgerweg (Berlin),,52.4244850,13.4405710,,,0,
9080652,,Britzer Garten (Berlin),,52.4280220,13.4350410,,,0,
9080654,,Schlosserweg (Berlin),,52.4380890,13.4349710,,,0,
9081101,,Quarzweg/Marienfelder Chaussee (Berlin),,52.4182650,13.4168640,,,0,
9081151,,Bühler Weg (Berlin),,52.4173060,13.4129090,,,0,
9081152,,Grauwackeweg (Berlin),,52.4158150,13.4068200,,,0,
9081201,,Alt-Buckow (Berlin),,52.4237190,13.4363710,,,0,
9081202,,Stuthirtenweg (Berlin),,52.4176840,13.4485080,,,0,
9081203,,Buckower Damm/Ringslebenstr. (Berlin),,52.4175270,13.4392860,,,0,
9081204,,Pfarrer-Vogelsang-Weg (Berlin),,52.4218950,13.4318580,,,0,
9081250,,Heinrich-Mann-Oberschule (Berlin),,52.4151750,13.4324190,,,0,
9081251,,Rufacher Weg (Berlin),,52.4206740,13.4273050,,,0,
9081252,,Delmer Steig (Berlin),,52.4195830,13.4223310,,,0,
9081253,,Hasenhegerweg (Berlin),,52.4213420,13.4492160,,,0,
9081254,,Dröpkeweg (Berlin),,52.4195850,13.4488640,,,0,
9081255,,Ringslebenstr./Mollnerweg (Berlin),,52.4176000,13.4435660,,,0,
9081256,,Mollnerweg (Berlin),,52.4193630,13.4382730,,,0,
9081257,,An den Achterhöfen (Berlin),,52.4218040,13.4378820,,,0,
9082101,,Klinikum Neukölln (Berlin),,52.4402120,13.4590120,,,0,
9082103,,Kolibriweg (Berlin),,52.4349870,13.4549280,,,0,
9082105,,Johannisthaler Chaussee/Fritz-Erler-Allee (Berlin),,52.4317240,13.4600700,,,0,
9082151,,Rotschwanzweg (Berlin),,52.4375010,13.4565110,,,0,
9082152,,Rudower Str./Grüner Weg (Berlin),,52.4424440,13.4565270,,,0,
9082201,,U Lipschitzallee (Berlin),,52.4246490,13.4631140,,,0,
9082202,,U Johannisthaler Chaussee (Berlin),,52.4292570,13.4538570,,,0,
9082203,,Lipschitzallee/Rudower Str. (Berlin),,52.4321850,13.4735540,,,0,
9082204,,Hörsingsteig (Berlin),,52.4239680,13.4607540,,,0,
9082205,,Lipschitzallee/Fritz-Erler-Allee (Berlin),,52.4277320,13.4681560,,,0,
9082250,,Hugo-Heimann-Str. (Berlin),,52.4248550,13.4573730,,,0,
9082251,,Storchenweg (Berlin),,52.4363400,13.4654280,,,0,
9082252,,Löwensteinring (Berlin),,52.4295490,13.4651140,,,0,
9082253,,Wildmeisterdamm (Berlin),,52.4258830,13.4650660,,,0,
9082254,,Sollmannweg (Berlin),,52.4226830,13.4621670,,,0,
9082255,,Kölner Damm (Berlin),,52.4231220,13.4557130,,,0,
9082256,,Landreiterweg (Berlin),,52.4217580,13.4540800,,,0,
9082257,,Wutzkyallee (Berlin),,52.4256820,13.4740280,,,0,
9082258,,Zadekstr. (Berlin),,52.4380500,13.4623080,,,0,
9082259,,Gesundheitszentrum (Berlin),,52.4292560,13.4706330,,,0,
9082261,,Am Großen Rohrpfuhl (Berlin),,52.4121920,13.4947560,,,0,
9082262,,Lockenhuhnweg (Berlin),,52.4085350,13.4925460,,,0,
9082263,,Schneehuhnweg (Berlin),,52.4050130,13.4909870,,,0,
9082264,,Schönefelder Str./Eichenauer Weg (Berlin),,52.4127250,13.4980230,,,0,
9082291,,Johannisthaler Ch./Rudower Str. (Berlin),,52.4343040,13.4686690,,,0,
9082293,,Beifußweg (Berlin),,52.4382660,13.4738300,,,0,
9082294,,Birkhuhnweg (Berlin),,52.4363600,13.4717370,,,0,
9082295,,Stelzenweg (Berlin),,52.4402360,13.4759110,,,0,
9082296,,Buchfinkweg (Berlin),,52.4331280,13.4642630,,,0,
9083101,,U Zwickauer Damm (Berlin),,52.4230350,13.4843770,,,0,
9083102,,U Wutzkyallee (Berlin),,52.4231550,13.4748250,,,0,
9083103,,Arnikaweg (Berlin),,52.4298960,13.4776820,,,0,
9083105,,Flurweg/Seidelbastweg (Berlin),,52.4348710,13.4880390,,,0,
9083152,,Frauenschuhweg (Berlin),,52.4335180,13.4912430,,,0,
9083153,,Fuchsienweg (Berlin),,52.4325170,13.4850930,,,0,
9083154,,Goldlackweg (Berlin),,52.4298450,13.4817680,,,0,
9083155,,Schriftsetzerweg (Berlin),,52.4210670,13.4815320,,,0,
9083171,,Fleischerstr. (Berlin),,52.4191090,13.4792910,,,0,
9083181,,Neuköllner Str./Zwickauer Damm (Berlin),,52.4241000,13.4854570,,,0,
9083201,,U Rudow (Berlin),,52.4156180,13.4967390,,,0,
9083202,,Massantebrücke (Berlin),,52.4316580,13.4955180,,,0,
9083204,,August-Froehlich-Str. (Berlin),,52.4241690,13.5140530,,,0,
9083205,,Ascherslebener Weg (Berlin),,52.4105820,13.4798140,,,0,
9083251,,Alt-Rudow/Köpenicker Str. (Berlin),,52.4177890,13.4955780,,,0,
9083252,,Krokusstr. (Berlin),,52.4204240,13.4919480,,,0,
9083253,,Fritz-Erler-Allee/Neuköllner Str. (Berlin),,52.4260200,13.4829040,,,0,
9083254,,Hafenstr. (Berlin),,52.4265540,13.5067540,,,0,
9083255,,Mistelweg (Berlin),,52.4281010,13.5031310,,,0,
9083256,,Kanalstr. 38-41 (Berlin),,52.4303570,13.4981650,,,0,
9083257,,Windenweg (Berlin),,52.4257440,13.4876880,,,0,
9083258,,Glockenblumenweg (Berlin),,52.4279030,13.4903780,,,0,
9083259,,Petunienweg (Berlin),,52.4299370,13.4930190,,,0,
9083260,,Rudower Höhe (Berlin),,52.4208410,13.5156880,,,0,
9083262,,Großenhainer Weg (Berlin),,52.4166590,13.4811790,,,0,
9083263,,Sebnitzer Weg (Berlin),,52.4143440,13.4872740,,,0,
9083264,,Pirnaer Str. (Berlin),,52.4118900,13.4837090,,,0,
9083265,,Rudower Fließ (Berlin),,52.4135230,13.4910680,,,0,
9083266,,Prierosser Str. (Berlin),,52.4186880,13.4976810,,,0,
9083267,,Herzblattweg (Berlin),,52.4210290,13.5030670,,,0,
9083268,,Buchsbaumweg (Berlin),,52.4220340,13.5059970,,,0,
9083269,,Im Bauernbusch/Köpenicker Str. (Berlin),,52.4227000,13.5094750,,,0,
9083271,,Hopfenweg (Berlin),,52.4256260,13.4791570,,,0,
9083301,,Stadtgrenze Rudow (Berlin),,52.4016800,13.5134880,,,0,
9083302,,Kapaunenstr. (Berlin),,52.4009250,13.4859120,,,0,
9083303,,Waltersdorfer Chaussee/Ostburger Weg (Berlin),,52.4097640,13.5054180,,,0,
9083304,,Pfarrer-Heß-Weg (Berlin),,52.4193530,13.5104330,,,0,
9083305,,Hiltrud-Dudek-Weg (Berlin),,52.4023700,13.5129830,,,0,
9083351,,Lieselotte-Berger-Str. (Berlin),,52.4042390,13.5108570,,,0,
9083352,,Narkauer Weg (Berlin),,52.4071250,13.5080170,,,0,
9083353,,Neuhofer Str. (Berlin),,52.4114120,13.5037690,,,0,
9083354,,Eichenauer Weg (Berlin),,52.4135910,13.5013150,,,0,
9083355,,Selgenauer Weg (Berlin),,52.4183960,13.5051680,,,0,
9083356,,Landhaussiedlung (Berlin),,52.4181280,13.5022190,,,0,
9083357,,Künnekeweg (Berlin),,52.4159020,13.5139610,,,0,
9083358,,Will-Meisel-Weg (Berlin),,52.4120200,13.5124760,,,0,
9083359,,Kirchhof Rudow (Berlin),,52.4112390,13.5102880,,,0,
9083360,,Leghornweg (Berlin),,52.4066890,13.4842100,,,0,
9083361,,Lakenfelderweg (Berlin),,52.4087380,13.4813840,,,0,
9083362,,Schönefelder Str./Neuhofer Str. (Berlin),,52.4102910,13.4986460,,,0,
9083363,,Straße 577 (Berlin),,52.4075110,13.4995800,,,0,
9083364,,Knollstr. (Berlin),,52.4035550,13.5003720,,,0,
9083365,,Friederike-Nadig-Str. (Berlin),,52.4012450,13.5018510,,,0,
9083366,,Lieselotte-Berger-Platz (Berlin),,52.4036630,13.5081490,,,0,
9083391,,Ostburger Weg/Lettberger Str. (Berlin),,52.4138950,13.5162140,,,0,
9084101,,S Wilhelmsruh (Berlin),,52.5815920,13.3632900,,,0,
9084102,,Roedernallee/Flottenstr. (Berlin),,52.5788220,13.3469760,,,0,
9084103,,Kopenhagener Str./Flottenstr. (Berlin),,52.5774790,13.3613920,,,0,
9084151,,Weinbrennerweg (Berlin),,52.5829650,13.3438280,,,0,
9084152,,Flottenstr. (Berlin),,52.5782060,13.3505120,,,0,
9084153,,Lengeder Str. (Berlin),,52.5824760,13.3472800,,,0,
